상가업소번호,상호명,지점명,상권업종대분류코드,상권업종대분류명,상권업종중분류코드,상권업종중분류명,상권업종소분류코드,상권업종소분류명,표준산업분류코드,표준산업분류명,시도코드,시도명,시군구코드,시군구명,행정동코드,행정동명,법정동코드,법정동명,지번코드,대지구분코드,대지구분명,지번본번지,지번부번지,지번주소,도로명코드,도로명,건물본번지,건물부번지,건물관리번호,건물명,도로명주소,구우편번호,신우편번호,동정보,층정보,호정보,경도,위도
MA010120220805433645,매머드커피외대,,I2,음식,I212,비알코올 ,I21201,카페,I56221,커피 전문점,11,서울특별시,11230,동대문구,11230740,이문1동,1123011000,이문동,1.12301E+18,1,대지,264,223,서울특별시 동대문구 이문동 264-223,1.12304E+11,서울특별시 동대문구 천장산로7길,16,,1.12301E+24,,서울특별시 동대문구 천장산로7길 16,130829,2449,,1,,127.0569616,37.59849285
MA010120220805439208,러슬,,I2,음식,I212,비알코올 ,I21201,카페,I56221,커피 전문점,11,서울특별시,11215,광진구,11215860,구의2동,1121510300,구의동,1.12151E+18,1,대지,612,10,서울특별시 광진구 구의동 612-10,1.12154E+11,서울특별시 광진구 자양로37길,63,,1.12151E+24,CEMIU,서울특별시 광진구 자양로37길 63,143833,4993,,3,,127.0855434,37.54860149
MA010120220805446012,알베르금호,,I2,음식,I212,비알코올 ,I21201,카페,I56221,커피 전문점,11,서울특별시,11200,성동구,11200620,금호4가동,1120011200,금호동4가,1.12001E+18,1,대지,173,9,서울특별시 성동구 금호동4가 173-9,1.12004E+11,서울특별시 성동구 금호로3길,14,,1.12001E+24,금호동교회,서울특별시 성동구 금호로3길 14,133808,4737,,,,127.0243875,37.54767051
MA010120220805445839,에딕티건대,,I2,음식,I212,비알코올 ,I21201,카페,I56229,기타 비알코올 음료점업,11,서울특별시,11215,광진구,11215710,화양동,1121510700,화양동,1.12151E+18,1,대지,47,1,서울특별시 광진구 화양동 47-1,1.12154E+11,서울특별시 광진구 아차산로29길,41,,1.12151E+24,,서울특별시 광진구 아차산로29길 41,143917,5018,,1,,127.0688788,37.54272255
MA010120220805448057,페르비타,,I2,음식,I212,비알코올 ,I21201,카페,I56221,커피 전문점,11,서울특별시,11230,동대문구,11230660,장안2동,1123010600,장안동,1.12301E+18,1,대지,310,4,서울특별시 동대문구 장안동 310-4,1.12303E+11,서울특별시 동대문구 장한로,158,,1.12301E+24,대흥빌딩,서울특별시 동대문구 장한로 158,130839,2523,,1,,127.0721753,37.57438433
MA010120220805453894,프롬하츠커피신설역점,,I2,음식,I212,비알코올 ,I21201,카페,I56221,커피 전문점,11,서울특별시,11230,동대문구,11230536,용신동,1123010100,신설동,1.12301E+18,1,대지,89,79,서울특별시 동대문구 신설동 89-79,1.12303E+11,서울특별시 동대문구 왕산로,25,,1.12301E+24,,서울특별시 동대문구 왕산로 25,130810,2580,,1,,127.0261131,37.57681556
MA010120220805452742,베로아로스터리망우점,,I2,음식,I212,비알코올 ,I21201,카페,I56221,커피 전문점,11,서울특별시,11260,중랑구,11260655,망우본동,1126010500,망우동,1.12601E+18,1,대지,202,1,서울특별시 중랑구 망우동 202-1,1.12603E+11,서울특별시 중랑구 망우로,464,,1.12601E+24,,서울특별시 중랑구 망우로 464,131802,2177,,1,,127.1036661,37.60019935
MA010120220805455945,인디고플레이스,,I2,음식,I212,비알코올 ,I21201,카페,I56221,커피 전문점,11,서울특별시,11215,광진구,11215710,화양동,1121510700,화양동,1.12151E+18,1,대지,29,22,서울특별시 광진구 화양동 29-22,1.12153E+11,서울특별시 광진구 능동로,154,,1.12151E+24,,서울특별시 광진구 능동로 154,143916,5021,,,,127.0730884,37.54454876
MA010120220805455154,카페,,I2,음식,I212,비알코올 ,I21201,카페,I56221,커피 전문점,11,서울특별시,11230,동대문구,11230720,휘경1동,1123010900,휘경동,1.12301E+18,1,대지,150,25,서울특별시 동대문구 휘경동 150-25,1.12304E+11,서울특별시 동대문구 휘경로19길,11,,1.12301E+24,,서울특별시 동대문구 휘경로19길 11,130875,2428,,,,127.0649643,37.5951686
MA010120220805463482,카페리빈갤러리아포레점,,I2,음식,I212,비알코올 ,I21201,카페,I56221,커피 전문점,11,서울특별시,11200,성동구,11200650,성수1가1동,1120011400,성수동1가,1.12001E+18,1,대지,685,696,서울특별시 성동구 성수동1가 685-696,1.12004E+11,서울특별시 성동구 서울숲2길,32,14,1.12001E+24,갤러리아포레,서울특별시 성동구 서울숲2길 32-14,133923,4769,,1,,127.0428934,37.54566846
MA010120220805463330,커피베이행당점,,I2,음식,I212,비알코올 ,I21201,카페,I56221,커피 전문점,11,서울특별시,11200,성동구,11200560,행당1동,1120010700,행당동,1.12001E+18,1,대지,140,,서울특별시 성동구 행당동 140,1.12004E+11,서울특별시 성동구 고산자로6길,40,,1.12001E+24,행당동레몬프라자,서울특별시 성동구 고산자로6길 40,133865,4745,,1,,127.0354558,37.55816854
MA010120220805467476,후식,,I2,음식,I212,비알코올 ,I21201,카페,I56221,커피 전문점,11,서울특별시,11260,중랑구,11260655,망우본동,1126010500,망우동,1.12601E+18,1,대지,495,,서울특별시 중랑구 망우동 495,1.12604E+11,서울특별시 중랑구 용마산로115길,109,,1.12601E+24,한일써너스빌리젠시2단지,서울특별시 중랑구 용마산로115길 109,131809,2163,,,,127.0941414,37.59744152
MA010120220805471432,매머드익스프레스,,I2,음식,I212,비알코올 ,I21201,카페,I56221,커피 전문점,11,서울특별시,11260,중랑구,11260590,상봉2동,1126010200,상봉동,1.12601E+18,1,대지,81,5,서울특별시 중랑구 상봉동 81-5,1.12603E+11,서울특별시 중랑구 망우로,346,,1.12601E+24,한일써너스빌,서울특별시 중랑구 망우로 346,131778,2150,,1,,127.0913555,37.59744713
MA010120220805470816,비바체,,I2,음식,I212,비알코올 ,I21201,카페,I56221,커피 전문점,11,서울특별시,11215,광진구,11215870,구의3동,1121510300,구의동,1.12151E+18,1,대지,200,19,서울특별시 광진구 구의동 200-19,1.12154E+11,서울특별시 광진구 광나루로52길,11,,1.12151E+24,,서울특별시 광진구 광나루로52길 11,143821,5034,,1,,127.0947895,37.54110389
MA010120220805476328,레스티오도서관점,,I2,음식,I212,비알코올 ,I21201,카페,I56221,커피 전문점,11,서울특별시,11215,광진구,11215710,화양동,1121510700,화양동,1.12151E+18,1,대지,1,,서울특별시 광진구 화양동 1,1.12153E+11,서울특별시 광진구 능동로,120,,1.12151E+24,건국대학교,서울특별시 광진구 능동로 120,143914,5029,,3,,127.0746953,37.53905594
MA010120220805475850,카페그린,,I2,음식,I212,비알코올 ,I21201,카페,I56221,커피 전문점,11,서울특별시,11200,성동구,11200535,왕십리도선동,1120010200,하왕십리동,1.12001E+18,1,대지,1070,,서울특별시 성동구 하왕십리동 1070,1.12003E+11,서울특별시 성동구 왕십리로,410,,1.12001E+24,센트라스,서울특별시 성동구 왕십리로 410,133020,4701,,1,,127.0240621,37.56654474
MA010120220805478457,이디야뚝섬유원지역점,,I2,음식,I212,비알코올 ,I21201,카페,I56221,커피 전문점,11,서울특별시,11215,광진구,11215847,자양4동,1121510500,자양동,1.12151E+18,1,대지,65,1,서울특별시 광진구 자양동 65-1,1.12153E+11,서울특별시 광진구 능동로,21,,1.12151E+24,,서울특별시 광진구 능동로 21,143845,5085,,1,,127.0672278,37.53354582
MA010120220805478529,스멜비,,I2,음식,I212,비알코올 ,I21201,카페,I56221,커피 전문점,11,서울특별시,11200,성동구,11200520,왕십리2동,1120010200,하왕십리동,1.12001E+18,1,대지,989,25,서울특별시 성동구 하왕십리동 989-25,1.12004E+11,서울특별시 성동구 무학봉15다길,4,,1.12001E+24,,서울특별시 성동구 무학봉15다길 4,133858,4710,,1,,127.0305353,37.5623091
MA010120220805482139,로프커피,,I2,음식,I212,비알코올 ,I21201,카페,I56221,커피 전문점,11,서울특별시,11215,광진구,11215730,군자동,1121510900,군자동,1.12151E+18,1,대지,464,2,서울특별시 광진구 군자동 464-2,1.12153E+11,서울특별시 광진구 동일로,304,,1.12151E+24,광산빌딩,서울특별시 광진구 동일로 304,143838,4994,,1,,127.073462,37.55824766
MA010120220805482368,카페메이,,I2,음식,I212,비알코올 ,I21201,카페,I56221,커피 전문점,11,서울특별시,11260,중랑구,11260610,중화2동,1126010300,중화동,1.12601E+18,1,대지,307,68,서울특별시 중랑구 중화동 307-68,1.12603E+11,서울특별시 중랑구 동일로,833,8,1.12601E+24,,서울특별시 중랑구 동일로 833-8,131881,2014,,1,,127.0782179,37.60490501
MA010120220805483120,현커피숍,,I2,음식,I212,비알코올 ,I21201,카페,I56229,기타 비알코올 음료점업,11,서울특별시,11260,중랑구,11260570,면목7동,1126010100,면목동,1.12601E+18,1,대지,523,10,서울특별시 중랑구 면목동 523-10,1.12603E+11,서울특별시 중랑구 사가정로,429,,1.12601E+24,,서울특별시 중랑구 사가정로 429,131833,2214,,,,127.0923291,37.58069517
MA010120220805482897,장수카페,,I2,음식,I212,비알코올 ,I21201,카페,I56221,커피 전문점,11,서울특별시,11215,광진구,11215730,군자동,1121510900,군자동,1.12151E+18,1,대지,65,3,서울특별시 광진구 군자동 65-3,1.12153E+11,서울특별시 광진구 군자로,140,,1.12151E+24,,서울특별시 광진구 군자로 140,143837,4998,,1,,127.0749954,37.55414188
MA010120220805485518,어치브먼트,,I2,음식,I212,비알코올 ,I21201,카페,I56221,커피 전문점,11,서울특별시,11230,동대문구,11230730,휘경2동,1123010900,휘경동,1.12301E+18,1,대지,294,163,서울특별시 동대문구 휘경동 294-163,1.12304E+11,서울특별시 동대문구 망우로18다길,19,,1.12301E+24,,서울특별시 동대문구 망우로18다길 19,130878,2498,,1,,127.060884,37.58645015
MA010120220805491881,소적두,,I2,음식,I212,비알코올 ,I21201,카페,I56221,커피 전문점,11,서울특별시,11200,성동구,11200660,성수1가2동,1120011400,성수동1가,1.12001E+18,1,대지,13,316,서울특별시 성동구 성수동1가 13-316,1.12004E+11,서울특별시 성동구 상원6길,8,,1.12001E+24,,서울특별시 성동구 상원6길 8,133822,4790,,,,127.0490464,37.54859252
MA010120220805491379,카페메이,,I2,음식,I212,비알코올 ,I21201,카페,I56221,커피 전문점,11,서울특별시,11200,성동구,11200690,성수2가3동,1120011500,성수동2가,1.12001E+18,1,대지,299,155,서울특별시 성동구 성수동2가 299-155,1.12004E+11,서울특별시 성동구 성수일로12길,19,1,1.12001E+24,,서울특별시 성동구 성수일로12길 19-1,133833,4792,,1,,127.0534169,37.5484204
MA010120220805498380,카페시카고,,I2,음식,I212,비알코올 ,I21201,카페,I56221,커피 전문점,11,서울특별시,11230,동대문구,11230730,휘경2동,1123010900,휘경동,1.12301E+18,1,대지,286,1,서울특별시 동대문구 휘경동 286-1,1.12304E+11,서울특별시 동대문구 망우로18가길,3,,1.12301E+24,휘경동근생주택,서울특별시 동대문구 망우로18가길 3,130878,2499,,1,,127.0624333,37.58930976
MA010120220805502965,에그허그,,I2,음식,I212,비알코올 ,I21201,카페,I56221,커피 전문점,11,서울특별시,11215,광진구,11215810,광장동,1121510400,광장동,1.12151E+18,1,대지,245,7,서울특별시 광진구 광장동 245-7,1.12154E+11,서울특별시 광진구 천호대로143길,8,5,1.12151E+24,,서울특별시 광진구 천호대로143길 8-5,143805,4968,,1,,127.1032625,37.54604324
MA010120220805506128,그린랩,,I2,음식,I212,비알코올 ,I21201,카페,I56221,커피 전문점,11,서울특별시,11200,성동구,11200660,성수1가2동,1120011400,성수동1가,1.12001E+18,1,대지,685,450,서울특별시 성동구 성수동1가 685-450,1.12004E+11,서울특별시 성동구 서울숲2길,18,11,1.12001E+24,,서울특별시 성동구 서울숲2길 18-11,133825,4768,,,,127.0405585,37.5468389
MA010120220805510998,빽다방화양,,I2,음식,I212,비알코올 ,I21201,카페,I56221,커피 전문점,11,서울특별시,11200,성동구,11200690,성수2가3동,1120011500,성수동2가,1.12001E+18,1,대지,281,16,서울특별시 성동구 성수동2가 281-16,1.12004E+11,서울특별시 성동구 아차산로17길,57,,1.12001E+24,일신건영휴먼테코,서울특별시 성동구 아차산로17길 57,133832,4799,,1,,127.0657078,37.54745505
MA010120220805519291,달콤,,I2,음식,I212,비알코올 ,I21201,카페,I56221,커피 전문점,11,서울특별시,11230,동대문구,11230545,제기동,1123010300,제기동,1.12301E+18,1,대지,181,1,서울특별시 동대문구 제기동 181-1,1.12303E+11,서울특별시 동대문구 약령시로,27,,1.12301E+24,,서울특별시 동대문구 약령시로 27,130861,2477,,1,,127.0329751,37.58283688
MA010120220805518931,온더코너,,I2,음식,I212,비알코올 ,I21201,카페,I56221,커피 전문점,11,서울특별시,11215,광진구,11215710,화양동,1121510700,화양동,1.12151E+18,1,대지,44,1,서울특별시 광진구 화양동 44-1,1.12154E+11,서울특별시 광진구 아차산로21길,44,,1.12151E+24,,서울특별시 광진구 아차산로21길 44,143917,5020,,1,,127.0659119,37.5437984
MA010120220805521651,소소라떼,,I2,음식,I212,비알코올 ,I21201,카페,I56221,커피 전문점,11,서울특별시,11260,중랑구,11260660,망우3동,1126010500,망우동,1.12601E+18,1,대지,531,27,서울특별시 중랑구 망우동 531-27,1.12604E+11,서울특별시 중랑구 봉우재로70길,91,,1.12601E+24,,서울특별시 중랑구 봉우재로70길 91,131807,2175,,1,,127.0972361,37.59155437
MA010120220805524815,모먼트,,I2,음식,I212,비알코올 ,I21201,카페,I56221,커피 전문점,11,서울특별시,11260,중랑구,11260590,상봉2동,1126010200,상봉동,1.12601E+18,1,대지,113,2,서울특별시 중랑구 상봉동 113-2,1.12603E+11,서울특별시 중랑구 면목로,485,,1.12601E+24,,서울특별시 중랑구 면목로 485,131860,2137,,1,,127.0855849,37.59520402
MA010120220805528350,유끼노하나,,I2,음식,I212,비알코올 ,I21201,카페,I56221,커피 전문점,11,서울특별시,11230,동대문구,11230660,장안2동,1123010600,장안동,1.12301E+18,1,대지,312,9,서울특별시 동대문구 장안동 312-9,1.12304E+11,서울특별시 동대문구 장한로36길,10,,1.12301E+24,,서울특별시 동대문구 장한로36길 10,130839,2522,,1,,127.0728056,37.5774168
MA010120220805528017,더바른차담소,,I2,음식,I212,비알코올 ,I21201,카페,I56221,커피 전문점,11,서울특별시,11260,중랑구,11260540,면목4동,1126010100,면목동,1.12601E+18,1,대지,718,2,서울특별시 중랑구 면목동 718-2,1.12603E+11,서울특별시 중랑구 동일로,467,,1.12601E+24,디자인빌딩,서울특별시 중랑구 동일로 467,131835,2248,,1,,127.0798331,37.5721466
MA010120220805529302,메가엠지씨커피배봉,,I2,음식,I212,비알코올 ,I21201,카페,I56221,커피 전문점,11,서울특별시,11230,동대문구,11230660,장안2동,1123010600,장안동,1.12301E+18,1,대지,111,8,서울특별시 동대문구 장안동 111-8,1.12303E+11,서울특별시 동대문구 한천로,189,,1.12301E+24,,서울특별시 동대문구 한천로 189,130836,2534,,1,,127.0678627,37.57796355
MA010120220805532569,카페줌마,,I2,음식,I212,비알코올 ,I21201,카페,I56221,커피 전문점,11,서울특별시,11260,중랑구,11260600,중화1동,1126010300,중화동,1.12601E+18,1,대지,287,7,서울특별시 중랑구 중화동 287-7,1.12603E+11,서울특별시 중랑구 동일로,790,,1.12601E+24,,서울특별시 중랑구 동일로 790,131876,2088,,1,,127.0798171,37.60103399
MA010120220805536391,조해산업디앤엠,,I2,음식,I212,비알코올 ,I21201,카페,I56221,커피 전문점,11,서울특별시,11200,성동구,11200590,금호1가동,1120010900,금호동1가,1.12001E+18,1,대지,128,1,서울특별시 성동구 금호동1가 128-1,1.12003E+11,서울특별시 성동구 행당로,35,,1.12001E+24,금복빌딩,서울특별시 성동구 행당로 35,133800,4721,,4,,127.0234656,37.55588044
MA010120220805542649,커피온리팔공티,,I2,음식,I212,비알코올 ,I21201,카페,I56221,커피 전문점,11,서울특별시,11200,성동구,11200690,성수2가3동,1120011500,성수동2가,1.12001E+18,1,대지,315,31,서울특별시 성동구 성수동2가 315-31,1.12004E+11,서울특별시 성동구 연무장7길,8,1,1.12001E+24,,서울특별시 성동구 연무장7길 8-1,133835,4782,,1,,127.0546233,37.5434022
MA010120220805541103,카페브로딩,,I2,음식,I212,비알코올 ,I21201,카페,I56221,커피 전문점,11,서울특별시,11260,중랑구,11260565,면목본동,1126010100,면목동,1.12601E+18,1,대지,89,7,서울특별시 중랑구 면목동 89-7,1.12603E+11,서울특별시 중랑구 상봉로,89,,1.12601E+24,진현빌딩,서울특별시 중랑구 상봉로 89,131817,2156,,1,,127.0929853,37.59379242
MA010120220805540995,메가엠지씨커피금호역점,,I2,음식,I212,비알코올 ,I21201,카페,I56221,커피 전문점,11,서울특별시,11200,성동구,11200620,금호4가동,1120011200,금호동4가,1.12001E+18,1,대지,1202,,서울특별시 성동구 금호동4가 1202,1.12004E+11,서울특별시 성동구 장터길,30,,1.12001E+24,,서울특별시 성동구 장터길 30,133809,4725,,1,,127.0191298,37.5481856
MA010120220805609312,힐,,I2,음식,I212,비알코올 ,I21201,카페,I56221,커피 전문점,11,서울특별시,11215,광진구,11215870,구의3동,1121510300,구의동,1.12151E+18,1,대지,596,1,서울특별시 광진구 구의동 596-1,1.12154E+11,서울특별시 광진구 뚝섬로66길,7,,1.12151E+24,힐하우스,서울특별시 광진구 뚝섬로66길 7,143831,5115,,,,127.0903086,37.53363577
MA010120220805642421,줄리앤몰리,,I2,음식,I212,비알코올 ,I21201,카페,I56221,커피 전문점,11,서울특별시,11215,광진구,11215820,자양1동,1121510500,자양동,1.12151E+18,1,대지,630,42,서울특별시 광진구 자양동 630-42,1.12154E+11,서울특별시 광진구 뚝섬로59길,67,,1.12151E+24,,서울특별시 광진구 뚝섬로59길 67,143867,5058,,1,,127.0830639,37.5348322
MA010120220805636804,커피주는이불,,I2,음식,I212,비알코올 ,I21201,카페,I56194,김밥 및 기타 간이 음식점업,11,서울특별시,11260,중랑구,11260660,망우3동,1126010500,망우동,1.12601E+18,1,대지,408,16,서울특별시 중랑구 망우동 408-16,1.12603E+11,서울특별시 중랑구 용마공원로,22,,1.12601E+24,,서울특별시 중랑구 용마공원로 22,131801,2182,,1,,127.1012528,37.59370248
MA010120220805686588,공근이,,I2,음식,I212,비알코올 ,I21201,카페,I56221,커피 전문점,11,서울특별시,11200,성동구,11200660,성수1가2동,1120011400,성수동1가,1.12001E+18,1,대지,13,145,서울특별시 성동구 성수동1가 13-145,1.12004E+11,서울특별시 성동구 상원길,48,1,1.12001E+24,,서울특별시 성동구 상원길 48-1,133822,4790,,2,,127.0484958,37.54828173
MA010120220805681573,토끼를따라간앨리스,,I2,음식,I212,비알코올 ,I21201,카페,I56221,커피 전문점,11,서울특별시,11260,중랑구,11260600,중화1동,1126010300,중화동,1.12601E+18,1,대지,291,1,서울특별시 중랑구 중화동 291-1,1.12604E+11,서울특별시 중랑구 동일로130길,50,,1.12601E+24,,서울특별시 중랑구 동일로130길 50,131877,2094,,1,,127.0826846,37.59993001
MA010120220805682520,선주카페,,I2,음식,I212,비알코올 ,I21201,카페,I56221,커피 전문점,11,서울특별시,11215,광진구,11215840,자양3동,1121510500,자양동,1.12151E+18,1,대지,126,1,서울특별시 광진구 자양동 126-1,1.12153E+11,서울특별시 광진구 강변북로,2230,,1.12151E+24,아리랑하우스,서울특별시 광진구 강변북로 2230,143193,5097,,,,127.0678009,37.52840533
MA010120220805691951,커피에반하다강변역점,,I2,음식,I212,비알코올 ,I21201,카페,I56221,커피 전문점,11,서울특별시,11215,광진구,11215870,구의3동,1121510300,구의동,1.12151E+18,1,대지,631,1,서울특별시 광진구 구의동 631-1,1.12154E+11,서울특별시 광진구 광나루로56길,29,,1.12151E+24,현대프라임아파트,서울특별시 광진구 광나루로56길 29,143761,5119,,1,,127.0965143,37.53695423
MA010120220805804842,커피에반하다,,I2,음식,I212,비알코올 ,I21201,카페,I56221,커피 전문점,11,서울특별시,11230,동대문구,11230650,장안1동,1123010600,장안동,1.12301E+18,1,대지,580,,서울특별시 동대문구 장안동 580,1.12303E+11,서울특별시 동대문구 한천로,42,,1.12301E+24,위더스빌,서울특별시 동대문구 한천로 42,130101,2631,,1,,127.0617076,37.56593988
MA010120220805803862,로우키,,I2,음식,I212,비알코올 ,I21201,카페,I56221,커피 전문점,11,서울특별시,11200,성동구,11200650,성수1가1동,1120011400,성수동1가,1.12001E+18,1,대지,22,8,서울특별시 성동구 성수동1가 22-8,1.12004E+11,서울특별시 성동구 뚝섬로1나길,5,,1.12001E+24,헤이그라운드(HEYGROUND),서울특별시 성동구 뚝섬로1나길 5,133819,4779,,1,,127.0477635,37.54446439
MA010120220805837988,카페순이,,I2,음식,I212,비알코올 ,I21201,카페,I56221,커피 전문점,11,서울특별시,11200,성동구,11200720,송정동,1120011800,송정동,1.12001E+18,1,대지,71,12,서울특별시 성동구 송정동 71-12,1.12004E+11,서울특별시 성동구 광나루로11길,51,,1.12001E+24,가람빌,서울특별시 성동구 광나루로11길 51,133836,4801,,1,,127.0683545,37.55211637
MA010120220805830074,오크라,,I2,음식,I212,비알코올 ,I21201,카페,I56221,커피 전문점,11,서울특별시,11230,동대문구,11230710,회기동,1123010800,회기동,1.12301E+18,1,대지,20,2,서울특별시 동대문구 회기동 20-2,1.12304E+11,서울특별시 동대문구 회기로21길,26,,1.12301E+24,,서울특별시 동대문구 회기로21길 26,130872,2453,,2,,127.0533896,37.59261649
MA010120220805854992,빽다방망우역,,I2,음식,I212,비알코올 ,I21201,카페,I56221,커피 전문점,11,서울특별시,11260,중랑구,11260655,망우본동,1126010500,망우동,1.12601E+18,1,대지,479,,서울특별시 중랑구 망우동 479,1.12604E+11,서울특별시 중랑구 용마산로115길,127,,1.12601E+24,한일써너스빌리젠시1단지,서울특별시 중랑구 용마산로115길 127,131231,2163,,1,,127.0936535,37.59751886
MA010120220805843613,더리터,,I2,음식,I212,비알코올 ,I21201,카페,I56221,커피 전문점,11,서울특별시,11200,성동구,11200690,성수2가3동,1120011500,성수동2가,1.12001E+18,1,대지,289,26,서울특별시 성동구 성수동2가 289-26,1.12004E+11,서울특별시 성동구 아차산로7길,9,2,1.12001E+24,,서울특별시 성동구 아차산로7길 9-2,133834,4793,,1,,127.0543624,37.54613931
MA010120220805840363,스프링그린커피,,I2,음식,I212,비알코올 ,I21201,카페,I56221,커피 전문점,11,서울특별시,11200,성동구,11200660,성수1가2동,1120011400,성수동1가,1.12001E+18,1,대지,8,28,서울특별시 성동구 성수동1가 8-28,1.12004E+11,서울특별시 성동구 왕십리로4길,26,14,1.12001E+24,,서울특별시 성동구 왕십리로4길 26-14,133822,4778,,1,,127.0468392,37.54684471
MA010120220805860540,이디야커피건대스타시티,,I2,음식,I212,비알코올 ,I21201,카페,I56221,커피 전문점,11,서울특별시,11215,광진구,11215840,자양3동,1121510500,자양동,1.12151E+18,1,대지,227,342,서울특별시 광진구 자양동 227-342,1.12153E+11,서울특별시 광진구 능동로,92,,1.12151E+24,롯데백화점,서울특별시 광진구 능동로 92,143854,5065,,2,,127.0711996,37.53899245
MA010120220805860968,우지커피동원,,I2,음식,I212,비알코올 ,I21201,카페,I56221,커피 전문점,11,서울특별시,11260,중랑구,11260660,망우3동,1126010500,망우동,1.12601E+18,1,대지,525,5,서울특별시 중랑구 망우동 525-5,1.12603E+11,서울특별시 중랑구 겸재로,237,,1.12601E+24,,서울특별시 중랑구 겸재로 237,131807,2175,,,,127.0939254,37.59004228
MA010120220805889239,커피에반하다,,I2,음식,I212,비알코올 ,I21201,카페,I56221,커피 전문점,11,서울특별시,11230,동대문구,11230536,용신동,1123010200,용두동,1.12301E+18,1,대지,233,23,서울특별시 동대문구 용두동 233-23,1.12303E+11,서울특별시 동대문구 왕산로,45,,1.12301E+24,KYTOWER,서울특별시 동대문구 왕산로 45,130823,2579,,1,,127.0283243,37.57741045
MA010120220805899310,Sit,,I2,음식,I212,비알코올 ,I21201,카페,I56221,커피 전문점,11,서울특별시,11200,성동구,11200645,옥수동,1120011300,옥수동,1.12001E+18,1,대지,322,3,서울특별시 성동구 옥수동 322-3,1.12003E+11,서울특별시 성동구 독서당로,230,,1.12001E+24,,서울특별시 성동구 독서당로 230,133840,4735,,4,,127.0160916,37.54427681
MA010120220805899732,안녕가비,,I2,음식,I212,비알코올 ,I21201,카페,I56221,커피 전문점,11,서울특별시,11215,광진구,11215760,중곡3동,1121510100,중곡동,1.12151E+18,1,대지,172,74,서울특별시 광진구 중곡동 172-74,1.12154E+11,서울특별시 광진구 능동로53길,41,,1.12151E+24,,서울특별시 광진구 능동로53길 41,143900,4908,,1,,127.0821946,37.56697495
MA010120220805896836,카페미뇽,,I2,음식,I212,비알코올 ,I21201,카페,I56229,기타 비알코올 음료점업,11,서울특별시,11215,광진구,11215710,화양동,1121510700,화양동,1.12151E+18,1,대지,9,90,서울특별시 광진구 화양동 9-90,1.12154E+11,서울특별시 광진구 아차산로29길,12,,1.12151E+24,,서울특별시 광진구 아차산로29길 12,143914,5018,,1,,127.0684197,37.54142141
MA010120220805927461,꽃다방,,I2,음식,I212,비알코올 ,I21201,카페,I56229,기타 비알코올 음료점업,11,서울특별시,11215,광진구,11215847,자양4동,1121510500,자양동,1.12151E+18,1,대지,547,64,서울특별시 광진구 자양동 547-64,1.12154E+11,서울특별시 광진구 뚝섬로31길,43,,1.12151E+24,조양어린이집,서울특별시 광진구 뚝섬로31길 43,143877,5075,,1,,127.0681966,37.53752711
MA010120220805961658,이오커피로스터스,,I2,음식,I212,비알코올 ,I21201,카페,I56221,커피 전문점,11,서울특별시,11200,성동구,11200650,성수1가1동,1120011400,성수동1가,1.12001E+18,1,대지,656,570,서울특별시 성동구 성수동1가 656-570,1.12004E+11,서울특별시 성동구 뚝섬로1가길,27,,1.12001E+24,K&Y빌딩,서울특별시 성동구 뚝섬로1가길 27,133821,4779,,1,,127.047784,37.54195963
MA010120220805953344,뜨리에이치,,I2,음식,I212,비알코올 ,I21201,카페,I56221,커피 전문점,11,서울특별시,11200,성동구,11200650,성수1가1동,1120011400,성수동1가,1.12001E+18,1,대지,656,625,서울특별시 성동구 성수동1가 656-625,1.12004E+11,서울특별시 성동구 왕십리로4길,10,9,1.12001E+24,,서울특별시 성동구 왕십리로4길 10-9,133821,4778,,지,,127.0461409,37.54569474
MA010120220805994845,감성커피장안동,,I2,음식,I212,비알코올 ,I21201,카페,I56221,커피 전문점,11,서울특별시,11230,동대문구,11230660,장안2동,1123010600,장안동,1.12301E+18,1,대지,307,3,서울특별시 동대문구 장안동 307-3,1.12303E+11,서울특별시 동대문구 장한로,139,,1.12301E+24,,서울특별시 동대문구 장한로 139,130838,2530,,1,,127.0714127,37.57289161
MA010120220805996356,디저트보안관,,I2,음식,I212,비알코올 ,I21201,카페,I56221,커피 전문점,11,서울특별시,11230,동대문구,11230560,전농1동,1123010400,전농동,1.12301E+18,1,대지,129,40,서울특별시 동대문구 전농동 129-40,1.12303E+11,서울특별시 동대문구 서울시립대로,126,,1.12301E+24,,서울특별시 동대문구 서울시립대로 126,130021,2543,,1,,127.0522064,37.58144307
MA010120220805988502,오시요거트,,I2,음식,I212,비알코올 ,I21201,카페,I56221,커피 전문점,11,서울특별시,11200,성동구,11200660,성수1가2동,1120011400,성수동1가,1.12001E+18,1,대지,8,27,서울특별시 성동구 성수동1가 8-27,1.12004E+11,서울특별시 성동구 왕십리로4길,26,12,1.12001E+24,,서울특별시 성동구 왕십리로4길 26-12,133822,4778,,1,,127.046771,37.54687119
MA010120220805988418,이디야커피,,I2,음식,I212,비알코올 ,I21201,카페,I56221,커피 전문점,11,서울특별시,11200,성동구,11200520,왕십리2동,1120010200,하왕십리동,1.12001E+18,1,대지,946,5,서울특별시 성동구 하왕십리동 946-5,1.12004E+11,서울특별시 성동구 무학봉15길,27,,1.12001E+24,스튜디오MOM,서울특별시 성동구 무학봉15길 27,133857,4710,,1,,127.030155,37.5637026
MA010120220806024161,히읗히읗,,I2,음식,I212,비알코올 ,I21201,카페,I56221,커피 전문점,11,서울특별시,11215,광진구,11215730,군자동,1121510900,군자동,1.12151E+18,1,대지,361,31,서울특별시 광진구 군자동 361-31,1.12154E+11,서울특별시 광진구 군자로10길,14,15,1.12151E+24,,서울특별시 광진구 군자로10길 14-15,143840,5005,,1,,127.0715812,37.54836639
MA010120220806119498,에이룸,,I2,음식,I212,비알코올 ,I21201,카페,I56221,커피 전문점,11,서울특별시,11200,성동구,11200720,송정동,1120011800,송정동,1.12001E+18,1,대지,73,747,서울특별시 성동구 송정동 73-747,1.12004E+11,서울특별시 성동구 송정12다길,17,,1.12001E+24,,서울특별시 성동구 송정12다길 17,133837,4801,,,,127.066713,37.55033735
MA010120220806117848,카페리브93,,I2,음식,I212,비알코올 ,I21201,카페,I56221,커피 전문점,11,서울특별시,11215,광진구,11215870,구의3동,1121510300,구의동,1.12151E+18,1,대지,217,1,서울특별시 광진구 구의동 217-1,1.12153E+11,서울특별시 광진구 구의강변로,93,,1.12151E+24,경복빌딩,서울특별시 광진구 구의강변로 93,143822,5047,,1,,127.0937302,37.53887017
MA010120220806167242,더마실카페,,I2,음식,I212,비알코올 ,I21201,카페,I56221,커피 전문점,11,서울특별시,11215,광진구,11215740,중곡1동,1121510100,중곡동,1.12151E+18,1,대지,241,17,서울특별시 광진구 중곡동 241-17,1.12153E+11,서울특별시 광진구 긴고랑로,41,,1.12151E+24,대화탕,서울특별시 광진구 긴고랑로 41,143903,4910,,1,,127.0808964,37.56300023
MA010120220806163344,88커피맥주,,I2,음식,I212,비알코올 ,I21201,카페,I56221,커피 전문점,11,서울특별시,11260,중랑구,11260630,묵2동,1126010400,묵동,1.12601E+18,1,대지,244,157,서울특별시 중랑구 묵동 244-157,1.12603E+11,서울특별시 중랑구 동일로,873,,1.12601E+24,,서울특별시 중랑구 동일로 873,131852,2009,,2,,127.077847,37.60834409
MA010120220806280743,로터스에스테이트,,I2,음식,I212,비알코올 ,I21201,카페,I56221,커피 전문점,11,서울특별시,11215,광진구,11215750,중곡2동,1121510100,중곡동,1.12151E+18,1,대지,43,18,서울특별시 광진구 중곡동 43-18,1.12154E+11,서울특별시 광진구 능동로44길,21,,1.12151E+24,,서울특별시 광진구 능동로44길 21,143885,4921,,1,,127.0827816,37.56064513
MA010120220806270615,투썸플레이스,,I2,음식,I212,비알코올 ,I21201,카페,I56221,커피 전문점,11,서울특별시,11260,중랑구,11260575,면목3.8동,1126010100,면목동,1.12601E+18,1,대지,56,2,서울특별시 중랑구 면목동 56-2,1.12603E+11,서울특별시 중랑구 용마산로,384,,1.12601E+24,이안애,서울특별시 중랑구 용마산로 384,131812,2193,,지,,127.0951989,37.58586218
MA010120220806302596,탐앤탐스왕십리센트라스점,,I2,음식,I212,비알코올 ,I21201,카페,I56221,커피 전문점,11,서울특별시,11200,성동구,11200535,왕십리도선동,1120010200,하왕십리동,1.12001E+18,1,대지,1070,,서울특별시 성동구 하왕십리동 1070,1.12003E+11,서울특별시 성동구 왕십리로,410,,1.12001E+24,센트라스,서울특별시 성동구 왕십리로 410,133020,4701,,1,,127.0240621,37.56654474
MA010120220806286608,태담망우점,,I2,음식,I212,비알코올 ,I21201,카페,I56221,커피 전문점,11,서울특별시,11260,중랑구,11260655,망우본동,1126010500,망우동,1.12601E+18,1,대지,207,2,서울특별시 중랑구 망우동 207-2,1.12603E+11,서울특별시 중랑구 망우로,470,,1.12601E+24,,서울특별시 중랑구 망우로 470,131802,2177,,1,,127.1043124,37.60013217
MA010120220806305909,엠제이와이,,I2,음식,I212,비알코올 ,I21201,카페,I56221,커피 전문점,11,서울특별시,11230,동대문구,11230536,용신동,1123010200,용두동,1.12301E+18,1,대지,27,26,서울특별시 동대문구 용두동 27-26,1.12304E+11,서울특별시 동대문구 고산자로30길,13,,1.12301E+24,,서울특별시 동대문구 고산자로30길 13,130817,2560,,,,127.03904,37.57608353
MA010120220806341786,요거프레소,,I2,음식,I212,비알코올 ,I21201,카페,I56221,커피 전문점,11,서울특별시,11230,동대문구,11230570,전농2동,1123010400,전농동,1.12301E+18,1,대지,32,4,서울특별시 동대문구 전농동 32-4,1.12303E+11,서울특별시 동대문구 사가정로,122,,1.12301E+24,전농동하우스토리,서울특별시 동대문구 사가정로 122,130850,2531,,,,127.0584982,37.57720444
MA010120220806336868,버몬커피,,I2,음식,I212,비알코올 ,I21201,카페,I56221,커피 전문점,11,서울특별시,11215,광진구,11215780,능동,1121510200,능동,1.12151E+18,1,대지,283,17,서울특별시 광진구 능동 283-17,1.12153E+11,서울특별시 광진구 능동로,266,,1.12151E+24,광정빌딩,서울특별시 광진구 능동로 266,143847,4990,,,,127.0778651,37.55363271
MA010120220806336440,별빛,,I2,음식,I212,비알코올 ,I21201,카페,I56229,기타 비알코올 음료점업,11,서울특별시,11230,동대문구,11230536,용신동,1123010100,신설동,1.12301E+18,1,대지,104,49,서울특별시 동대문구 신설동 104-49,1.12304E+11,서울특별시 동대문구 난계로30길,24,,1.12301E+24,신설동창성빌딩,서울특별시 동대문구 난계로30길 24,130812,2586,,1,,127.0245409,37.57409945
MA010120220806336643,카모플라쥬커피,,I2,음식,I212,비알코올 ,I21201,카페,I56221,커피 전문점,11,서울특별시,11200,성동구,11200660,성수1가2동,1120011400,성수동1가,1.12001E+18,1,대지,656,703,서울특별시 성동구 성수동1가 656-703,1.12004E+11,서울특별시 성동구 아차산로1길,9,,1.12001E+24,,서울특별시 성동구 아차산로1길 9,133843,4788,,1,,127.045669,37.54897975
MA010120220806360842,오고,,I2,음식,I212,비알코올 ,I21201,카페,I56221,커피 전문점,11,서울특별시,11215,광진구,11215810,광장동,1121510400,광장동,1.12151E+18,1,대지,285,7,서울특별시 광진구 광장동 285-7,1.12153E+11,서울특별시 광진구 광장로,71,1,1.12151E+24,,서울특별시 광진구 광장로 71-1,143806,4967,,1,,127.1050983,37.54772411
MA010120220806356019,커피디엔에이로스팅컴퍼니,,I2,음식,I212,비알코올 ,I21201,카페,I56221,커피 전문점,11,서울특별시,11230,동대문구,11230740,이문1동,1123011000,이문동,1.12301E+18,1,대지,264,173,서울특별시 동대문구 이문동 264-173,1.12304E+11,서울특별시 동대문구 천장산로4길,48,,1.12301E+24,,서울특별시 동대문구 천장산로4길 48,130829,2405,,1,,127.0578384,37.59901345
MA010120220806357351,커피온리,,I2,음식,I212,비알코올 ,I21201,카페,I56221,커피 전문점,11,서울특별시,11215,광진구,11215710,화양동,1121510700,화양동,1.12151E+18,1,대지,428,1,서울특별시 광진구 화양동 428-1,1.12154E+11,서울특별시 광진구 광나루로24길,29,,1.12151E+24,,서울특별시 광진구 광나루로24길 29,143926,5022,,,,127.076769,37.54523536
MA010120220806354423,카페다비다,,I2,음식,I212,비알코올 ,I21201,카페,I56221,커피 전문점,11,서울특별시,11215,광진구,11215850,구의1동,1121510300,구의동,1.12151E+18,1,대지,221,28,서울특별시 광진구 구의동 221-28,1.12154E+11,서울특별시 광진구 자양로18길,95,,1.12151E+24,,서울특별시 광진구 자양로18길 95,143823,5041,,1,,127.0887072,37.53878646
MA010120220806371850,카페가성비,,I2,음식,I212,비알코올 ,I21201,카페,I56221,커피 전문점,11,서울특별시,11230,동대문구,11230740,이문1동,1123011000,이문동,1.12301E+18,1,대지,287,36,서울특별시 동대문구 이문동 287-36,1.12303E+11,서울특별시 동대문구 이문로,96,1,1.12301E+24,,서울특별시 동대문구 이문로 96-1,130830,2440,,1,,127.0597293,37.59543337
MA010120220806369589,봉화산커피,,I2,음식,I212,비알코올 ,I21201,카페,I56221,커피 전문점,11,서울특별시,11260,중랑구,11260690,신내2동,1126010600,신내동,1.12601E+18,1,대지,648,,서울특별시 중랑구 신내동 648,1.12603E+11,서울특별시 중랑구 신내로,225,,1.12601E+24,디아뜨갤러리,서울특별시 중랑구 신내로 225,131872,2024,,,,127.0913446,37.61696364
MA010120220806390705,베티버,,I2,음식,I212,비알코올 ,I21201,카페,I56221,커피 전문점,11,서울특별시,11200,성동구,11200670,성수2가1동,1120011500,성수동2가,1.12001E+18,1,대지,339,71,서울특별시 성동구 성수동2가 339-71,1.12004E+11,서울특별시 성동구 성덕정11길,18,,1.12001E+24,,서울특별시 성동구 성덕정11길 18,133828,4775,,1,,127.053175,37.53891238
MA010120220806386574,커피모이,,I2,음식,I212,비알코올 ,I21201,카페,I56221,커피 전문점,11,서울특별시,11260,중랑구,11260565,면목본동,1126010100,면목동,1.12601E+18,1,대지,72,8,서울특별시 중랑구 면목동 72-8,1.12604E+11,서울특별시 중랑구 겸재로50길,31,,1.12601E+24,더베스트빌,서울특별시 중랑구 겸재로50길 31,131815,2199,,,,127.091913,37.58884644
MA010120220806388316,마치,,I2,음식,I212,비알코올 ,I21201,카페,I56221,커피 전문점,11,서울특별시,11230,동대문구,11230660,장안2동,1123010600,장안동,1.12301E+18,1,대지,339,19,서울특별시 동대문구 장안동 339-19,1.12304E+11,서울특별시 동대문구 장한로18길,57,,1.12301E+24,축제빌딩,서울특별시 동대문구 장한로18길 57,130840,2639,,1,,127.0720529,37.56782375
MA010120220806381806,복고다방사가정역점,,I2,음식,I212,비알코올 ,I21201,카페,I56221,커피 전문점,11,서울특별시,11260,중랑구,11260570,면목7동,1126010100,면목동,1.12601E+18,1,대지,627,1,서울특별시 중랑구 면목동 627-1,1.12603E+11,서울특별시 중랑구 면목로,290,,1.12601E+24,,서울특별시 중랑구 면목로 290,131828,2252,,1,,127.0862981,37.5785492
MA010120220806382556,컴포즈커피광진,,I2,음식,I212,비알코올 ,I21201,카페,I56221,커피 전문점,11,서울특별시,11215,광진구,11215860,구의2동,1121510300,구의동,1.12151E+18,1,대지,31,23,서울특별시 광진구 구의동 31-23,1.12153E+11,서울특별시 광진구 자양로,312,,1.12151E+24,욱현빌딩,서울특별시 광진구 자양로 312,143817,4956,,1,,127.0933882,37.55309516
MA010120220806413003,호정개발오페뜨,,I2,음식,I212,비알코올 ,I21201,카페,I56221,커피 전문점,11,서울특별시,11215,광진구,11215710,화양동,1121510700,화양동,1.12151E+18,1,대지,5,103,서울특별시 광진구 화양동 5-103,1.12153E+11,서울특별시 광진구 능동로,111,,1.12151E+24,,서울특별시 광진구 능동로 111,143914,5017,,2,,127.0708351,37.54100794
MA010120220806409001,유앤미,,I2,음식,I212,비알코올 ,I21201,카페,I56221,커피 전문점,11,서울특별시,11230,동대문구,11230750,이문2동,1123011000,이문동,1.12301E+18,1,대지,255,23,서울특별시 동대문구 이문동 255-23,1.12303E+11,서울특별시 동대문구 이문로,193,,1.12301E+24,,서울특별시 동대문구 이문로 193,130827,2400,,1,,127.0618659,37.60383907
MA010120220806407856,이디야응봉동점,,I2,음식,I212,비알코올 ,I21201,카페,I56221,커피 전문점,11,서울특별시,11200,성동구,11200580,응봉동,1120010800,응봉동,1.12001E+18,1,대지,98,,서울특별시 성동구 응봉동 98,1.12003E+11,서울특별시 성동구 독서당로,377,,1.12001E+24,금호현대아파트,서울특별시 성동구 독서당로 377,133770,4720,,1,,127.0311293,37.55052828
MA010120220806401064,카페엔젤,,I2,음식,I212,비알코올 ,I21201,카페,I56221,커피 전문점,11,서울특별시,11230,동대문구,11230536,용신동,1123010200,용두동,1.12301E+18,1,대지,29,1,서울특별시 동대문구 용두동 29-1,1.12304E+11,서울특별시 동대문구 왕산로28길,55,,1.12301E+24,,서울특별시 동대문구 왕산로28길 55,130817,2565,,1,,127.0391583,37.57568803
MA010120220806396936,알로하프룻,,I2,음식,I212,비알코올 ,I21201,카페,I56221,커피 전문점,11,서울특별시,11200,성동구,11200535,왕십리도선동,1120010200,하왕십리동,1.12001E+18,1,대지,1066,,서울특별시 성동구 하왕십리동 1066,1.12003E+11,서울특별시 성동구 무학로,33,,1.12001E+24,텐즈힐,서울특별시 성동구 무학로 33,133020,4702,,1,,127.0263609,37.56908665
MA010120220806398382,모츠,,I2,음식,I212,비알코올 ,I21201,카페,I56221,커피 전문점,11,서울특별시,11215,광진구,11215710,화양동,1121510700,화양동,1.12151E+18,1,대지,15,20,서울특별시 광진구 화양동 15-20,1.12154E+11,서울특별시 광진구 군자로3길,14,,1.12151E+24,화양빌딩,서울특별시 광진구 군자로3길 14,143915,5012,,,,127.0704277,37.54465399
MA010120220806401967,더빌리져,,I2,음식,I212,비알코올 ,I21201,카페,I56221,커피 전문점,11,서울특별시,11200,성동구,11200620,금호4가동,1120011200,금호동4가,1.12001E+18,1,대지,660,,서울특별시 성동구 금호동4가 660,1.12004E+11,서울특별시 성동구 독서당로46가길,28,,1.12001E+24,,서울특별시 성동구 독서당로46가길 28,133809,4737,,1,,127.0213356,37.54739296
MA010120220806432268,킹프레소,,I2,음식,I212,비알코올 ,I21201,카페,I56221,커피 전문점,11,서울특별시,11215,광진구,11215710,화양동,1121510700,화양동,1.12151E+18,1,대지,113,1,서울특별시 광진구 화양동 113-1,1.12154E+11,서울특별시 광진구 능동로19길,35,,1.12151E+24,광진코지웰,서울특별시 광진구 능동로19길 35,143915,5009,,1,,127.071835,37.54706186
MA010120220806430791,폴린커피바,,I2,음식,I212,비알코올 ,I21201,카페,I56221,커피 전문점,11,서울특별시,11200,성동구,11200690,성수2가3동,1120011500,성수동2가,1.12001E+18,1,대지,301,8,서울특별시 성동구 성수동2가 301-8,1.12004E+11,서울특별시 성동구 연무장3길,13,,1.12001E+24,,서울특별시 성동구 연무장3길 13,133835,4782,,1,,127.0516394,37.54490105
MA010120220806424866,헤일로스커피앤디저트,,I2,음식,I212,비알코올 ,I21201,카페,I56221,커피 전문점,11,서울특별시,11215,광진구,11215830,자양2동,1121510500,자양동,1.12151E+18,1,대지,607,18,서울특별시 광진구 자양동 607-18,1.12154E+11,서울특별시 광진구 뚝섬로46길,5,,1.12151E+24,,서울특별시 광진구 뚝섬로46길 5,143865,5099,,1,,127.0770958,37.53249704
MA010120220806415952,온센구점,,I2,음식,I212,비알코올 ,I21201,카페,I56221,커피 전문점,11,서울특별시,11230,동대문구,11230740,이문1동,1123011000,이문동,1.12301E+18,1,대지,327,7,서울특별시 동대문구 이문동 327-7,1.12303E+11,서울특별시 동대문구 이문로,89,,1.12301E+24,세진빌딩,서울특별시 동대문구 이문로 89,130831,2451,,,,127.0589875,37.59499496
MA010120220806415785,플랏쓰리,,I2,음식,I212,비알코올 ,I21201,카페,I56221,커피 전문점,11,서울특별시,11200,성동구,11200550,사근동,1120010700,행당동,1.12001E+18,1,대지,32,21,서울특별시 성동구 행당동 32-21,1.12003E+11,서울특별시 성동구 왕십리로,215,2,1.12001E+24,,서울특별시 성동구 왕십리로 215-2,133817,4764,,2,,127.0428531,37.55678707
MA010120220806415064,카페옆빵집,,I2,음식,I212,비알코올 ,I21201,카페,I56221,커피 전문점,11,서울특별시,11215,광진구,11215870,구의3동,1121510300,구의동,1.12151E+18,1,대지,546,4,서울특별시 광진구 구의동 546-4,1.12154E+11,서울특별시 광진구 광나루로56길,85,,1.12151E+24,테크노-마트21,서울특별시 광진구 광나루로56길 85,143721,5116,,1,,127.0956807,37.53571341
MA010120220806441934,투썸플레이스성수SKV,,I2,음식,I212,비알코올 ,I21201,카페,I56221,커피 전문점,11,서울특별시,11200,성동구,11200690,성수2가3동,1120011500,성수동2가,1.12001E+18,1,대지,315,61,서울특별시 성동구 성수동2가 315-61,1.12004E+11,서울특별시 성동구 연무장5가길,25,,1.12001E+24,성수역SKV1TOWER,서울특별시 성동구 연무장5가길 25,133835,4782,,1,,127.0555947,37.54354514
MA010120220806447823,기류,,I2,음식,I212,비알코올 ,I21201,카페,I56221,커피 전문점,11,서울특별시,11215,광진구,11215820,자양1동,1121510500,자양동,1.12151E+18,1,대지,625,13,서울특별시 광진구 자양동 625-13,1.12154E+11,서울특별시 광진구 뚝섬로51길,57,,1.12151E+24,우진빌딩,서울특별시 광진구 뚝섬로51길 57,143866,5057,,1,,127.0813446,37.5347828
MA010120220806439898,이히리베디히,,I2,음식,I212,비알코올 ,I21201,카페,I56221,커피 전문점,11,서울특별시,11215,광진구,11215860,구의2동,1121510300,구의동,1.12151E+18,1,대지,16,8,서울특별시 광진구 구의동 16-8,1.12153E+11,서울특별시 광진구 영화사로,75,,1.12151E+24,,서울특별시 광진구 영화사로 75,143816,4948,,1,,127.094275,37.55463375
MA010120220806434462,로우커피스탠드,,I2,음식,I212,비알코올 ,I21201,카페,I56221,커피 전문점,11,서울특별시,11200,성동구,11200670,성수2가1동,1120011500,성수동2가,1.12001E+18,1,대지,272,30,서울특별시 성동구 성수동2가 272-30,1.12004E+11,서울특별시 성동구 연무장길,94,,1.12001E+24,,서울특별시 성동구 연무장길 94,133121,4785,,1,,127.0595185,37.54107153
MA010120220806431680,카페프리그,,I2,음식,I212,비알코올 ,I21201,카페,I56221,커피 전문점,11,서울특별시,11230,동대문구,11230660,장안2동,1123010600,장안동,1.12301E+18,1,대지,107,8,서울특별시 동대문구 장안동 107-8,1.12303E+11,서울특별시 동대문구 사가정로,207,,1.12301E+24,삼협메디스빌딩,서울특별시 동대문구 사가정로 207,130836,2509,,1,,127.0679873,37.57886558
MA010120220806455296,오전오후,,I2,음식,I212,비알코올 ,I21201,카페,I56221,커피 전문점,11,서울특별시,11230,동대문구,11230610,답십리2동,1123010500,답십리동,1.12301E+18,1,대지,35,2,서울특별시 동대문구 답십리동 35-2,1.12303E+11,서울특별시 동대문구 전농로,54,,1.12301E+24,,서울특별시 동대문구 전농로 54,130883,2615,,1,,127.0573707,37.56964468
MA010120220806450261,투썸플레이스한양대엔터식스,,I2,음식,I212,비알코올 ,I21201,카페,I56221,커피 전문점,11,서울특별시,11200,성동구,11200550,사근동,1120010700,행당동,1.12001E+18,1,대지,377,,서울특별시 성동구 행당동 377,1.12003E+11,서울특별시 성동구 왕십리로,241,,1.12001E+24,서울숲더샵,서울특별시 성동구 왕십리로 241,133060,4765,,1,,127.0400869,37.55714305
MA010120220806452250,컴포즈커피,,I2,음식,I212,비알코올 ,I21201,카페,I56221,커피 전문점,11,서울특별시,11215,광진구,11215710,화양동,1121510700,화양동,1.12151E+18,1,대지,12,34,서울특별시 광진구 화양동 12-34,1.12154E+11,서울특별시 광진구 능동로13길,30,,1.12151E+24,,서울특별시 광진구 능동로13길 30,143914,5011,,1,,127.0705792,37.54339371
MA010120220806446566,투썸플레이스,,I2,음식,I212,비알코올 ,I21201,카페,I56221,커피 전문점,11,서울특별시,11200,성동구,11200615,금호2.3가동,1120011000,금호동2가,1.12001E+18,1,대지,1217,,서울특별시 성동구 금호동2가 1217,1.12003E+11,서울특별시 성동구 금호로,107,,1.12001E+24,래미안하이리버,서울특별시 성동구 금호로 107,133742,4728,,3,,127.0242942,37.55222003
MA010120220806466759,한강커피호프,,I2,음식,I212,비알코올 ,I21201,카페,I56221,커피 전문점,11,서울특별시,11260,중랑구,11260630,묵2동,1126010400,묵동,1.12601E+18,1,대지,239,154,서울특별시 중랑구 묵동 239-154,1.12604E+11,서울특별시 중랑구 동일로163길,9,,1.12601E+24,,서울특별시 중랑구 동일로163길 9,131852,2006,,1,,127.0767729,37.61185877
MA010120220806488446,빽다방왕십리역점,,I2,음식,I212,비알코올 ,I21201,카페,I56221,커피 전문점,11,서울특별시,11200,성동구,11200535,왕십리도선동,1120010400,도선동,1.12001E+18,1,대지,48,,서울특별시 성동구 도선동 48,1.12003E+11,서울특별시 성동구 왕십리로,320,1,1.12001E+24,,서울특별시 성동구 왕십리로 320-1,133882,4709,,1,,127.0341686,37.56231185
MA010120220806483762,스밍스튜디오,,I2,음식,I212,비알코올 ,I21201,카페,I56221,커피 전문점,11,서울특별시,11200,성동구,11200650,성수1가1동,1120011400,성수동1가,1.12001E+18,1,대지,656,253,서울특별시 성동구 성수동1가 656-253,1.12003E+11,서울특별시 성동구 뚝섬로,317,,1.12001E+24,,서울특별시 성동구 뚝섬로 317,133821,4779,,1,,127.0462301,37.54136141
MA010120220806486938,이디야커피군자역점,,I2,음식,I212,비알코올 ,I21201,카페,I56221,커피 전문점,11,서울특별시,11215,광진구,11215780,능동,1121510200,능동,1.12151E+18,1,대지,279,5,서울특별시 광진구 능동 279-5,1.12153E+11,서울특별시 광진구 능동로,290,,1.12151E+24,삼일빌딩,서울특별시 광진구 능동로 290,143847,4985,,1,,127.0789616,37.55557853
MA010120220806482257,카페인모아,,I2,음식,I212,비알코올 ,I21201,카페,I56221,커피 전문점,11,서울특별시,11215,광진구,11215840,자양3동,1121510500,자양동,1.12151E+18,1,대지,227,23,서울특별시 광진구 자양동 227-23,1.12153E+11,서울특별시 광진구 아차산로,292,,1.12151E+24,모아빌딩,서울특별시 광진구 아차산로 292,143854,5066,,1,,127.0752702,37.53831257
MA010120220806478777,커피베이성수세종,,I2,음식,I212,비알코올 ,I21201,카페,I56221,커피 전문점,11,서울특별시,11200,성동구,11200690,성수2가3동,1120011500,성수동2가,1.12001E+18,1,대지,284,62,서울특별시 성동구 성수동2가 284-62,1.12004E+11,서울특별시 성동구 성수일로10길,26,,1.12001E+24,하우스디세종타워,서울특별시 성동구 성수일로10길 26,133833,4793,,1,,127.0531361,37.54646287
MA010120220806508884,쥬씨,,I2,음식,I212,비알코올 ,I21201,카페,I56229,기타 비알코올 음료점업,11,서울특별시,11200,성동구,11200550,사근동,1120010700,행당동,1.12001E+18,1,대지,3,30,서울특별시 성동구 행당동 3-30,1.12003E+11,서울특별시 성동구 마조로,29,,1.12001E+24,,서울특별시 성동구 마조로 29,133817,4760,,1,,127.0410077,37.56035826
MA010120220806508673,라이크라떼,,I2,음식,I212,비알코올 ,I21201,카페,I56221,커피 전문점,11,서울특별시,11230,동대문구,11230545,제기동,1123010300,제기동,1.12301E+18,1,대지,1140,5,서울특별시 동대문구 제기동 1140-5,1.12303E+11,서울특별시 동대문구 왕산로,117,,1.12301E+24,불로장생타워,서울특별시 동대문구 왕산로 117,130864,2569,,1,,127.0364731,37.57848641
MA010120220806503271,두잉사회적협동조합,,I2,음식,I212,비알코올 ,I21201,카페,I56221,커피 전문점,11,서울특별시,11260,중랑구,11260660,망우3동,1126010500,망우동,1.12601E+18,1,대지,460,27,서울특별시 중랑구 망우동 460-27,1.12603E+11,서울특별시 중랑구 봉우재로,232,,1.12601E+24,,서울특별시 중랑구 봉우재로 232,131808,2173,,2,,127.0985975,37.59509687
MA010120220806499101,만랩커피묵동점,,I2,음식,I212,비알코올 ,I21201,카페,I56221,커피 전문점,11,서울특별시,11260,중랑구,11260620,묵1동,1126010400,묵동,1.12601E+18,1,대지,396,,서울특별시 중랑구 묵동 396,1.12603E+11,서울특별시 중랑구 숙선옹주로,45,,1.12601E+24,이편한세상화랑대,서울특별시 중랑구 숙선옹주로 45,131141,2030,,1,,127.0827184,37.61561743
MA010120220806495393,컴포즈커피먹골,,I2,음식,I212,비알코올 ,I21201,카페,I56221,커피 전문점,11,서울특별시,11260,중랑구,11260630,묵2동,1126010400,묵동,1.12601E+18,1,대지,238,125,서울특별시 중랑구 묵동 238-125,1.12604E+11,서울특별시 중랑구 동일로163길,8,,1.12601E+24,,서울특별시 중랑구 동일로163길 8,131851,2005,,1,,127.0768143,37.61217446
MA010120220806527209,더인셀덤,,I2,음식,I212,비알코올 ,I21201,카페,I56221,커피 전문점,11,서울특별시,11230,동대문구,11230650,장안1동,1123010600,장안동,1.12301E+18,1,대지,398,10,서울특별시 동대문구 장안동 398-10,1.12304E+11,서울특별시 동대문구 한천로14길,49,,1.12301E+24,,서울특별시 동대문구 한천로14길 49,130842,2628,,4,,127.0654419,37.56693362
MA010120220806527449,더코너,,I2,음식,I212,비알코올 ,I21201,카페,I56221,커피 전문점,11,서울특별시,11215,광진구,11215860,구의2동,1121510300,구의동,1.12151E+18,1,대지,78,25,서울특별시 광진구 구의동 78-25,1.12154E+11,서울특별시 광진구 자양로39길,14,,1.12151E+24,,서울특별시 광진구 자양로39길 14,143819,4992,,1,,127.0884909,37.54911085
MA010120220806518140,금의환향,,I2,음식,I212,비알코올 ,I21201,카페,I56221,커피 전문점,11,서울특별시,11230,동대문구,11230650,장안1동,1123010600,장안동,1.12301E+18,1,대지,377,3,서울특별시 동대문구 장안동 377-3,1.12304E+11,서울특별시 동대문구 장한로13길,11,4,1.12301E+24,,서울특별시 동대문구 장한로13길 11-4,130842,2628,,1,,127.0668028,37.56672814
MA010120220806518628,헤픈커피,,I2,음식,I212,비알코올 ,I21201,카페,I56221,커피 전문점,11,서울특별시,11230,동대문구,11230740,이문1동,1123011000,이문동,1.12301E+18,1,대지,306,11,서울특별시 동대문구 이문동 306-11,1.12303E+11,서울특별시 동대문구 휘경로,26,7,1.12301E+24,,서울특별시 동대문구 휘경로 26-7,130831,2441,,1,,127.0623519,37.59489559
MA010120220806510608,컴플리트커피,,I2,음식,I212,비알코올 ,I21201,카페,I56221,커피 전문점,11,서울특별시,11230,동대문구,11230720,휘경1동,1123010900,휘경동,1.12301E+18,1,대지,122,11,서울특별시 동대문구 휘경동 122-11,1.12303E+11,서울특별시 동대문구 휘경로,69,,1.12301E+24,,서울특별시 동대문구 휘경로 69,130875,2428,,1,,127.0674348,37.59411591
MA010120220806539472,428,,I2,음식,I212,비알코올 ,I21201,카페,I56221,커피 전문점,11,서울특별시,11200,성동구,11200670,성수2가1동,1120011500,성수동2가,1.12001E+18,1,대지,269,122,서울특별시 성동구 성수동2가 269-122,1.12003E+11,서울특별시 성동구 뚝섬로,428,,1.12001E+24,,서울특별시 성동구 뚝섬로 428,133826,4777,,1,,127.0579515,37.53790536
MA010120220806545197,안단티노,,I2,음식,I212,비알코올 ,I21201,카페,I56221,커피 전문점,11,서울특별시,11260,중랑구,11260655,망우본동,1126010500,망우동,1.12601E+18,1,대지,465,3,서울특별시 중랑구 망우동 465-3,1.12604E+11,서울특별시 중랑구 망우로66길,49,,1.12601E+24,새싹음악학원,서울특별시 중랑구 망우로66길 49,131809,2165,,1,,127.0996239,37.59732128
MA010120220806536605,리베라,,I2,음식,I212,비알코올 ,I21201,카페,I56221,커피 전문점,11,서울특별시,11260,중랑구,11260570,면목7동,1126010100,면목동,1.12601E+18,1,대지,633,1,서울특별시 중랑구 면목동 633-1,1.12603E+11,서울특별시 중랑구 면목로,303,,1.12601E+24,무궁화약국,서울특별시 중랑구 면목로 303,131828,2239,,1,,127.0871133,37.57947458
MA010120220806539843,사라다방,,I2,음식,I212,비알코올 ,I21201,카페,I56194,김밥 및 기타 간이 음식점업,11,서울특별시,11230,동대문구,11230710,회기동,1123010800,회기동,1.12301E+18,1,대지,45,78,서울특별시 동대문구 회기동 45-78,1.12303E+11,서울특별시 동대문구 회기로,149,3,1.12301E+24,,서울특별시 동대문구 회기로 149-3,130872,2453,,지,,127.0532338,37.59150696
MA010120220806532046,제주시성수동,,I2,음식,I212,비알코올 ,I21201,카페,I56221,커피 전문점,11,서울특별시,11200,성동구,11200670,성수2가1동,1120011500,성수동2가,1.12001E+18,1,대지,328,15,서울특별시 성동구 성수동2가 328-15,1.12004E+11,서울특별시 성동구 뚝섬로9길,20,,1.12001E+24,,서울특별시 성동구 뚝섬로9길 20,133827,4784,,1,,127.0562175,37.53991888
MA010120220806533112,프라이데이무브먼트,,I2,음식,I212,비알코올 ,I21201,카페,I56221,커피 전문점,11,서울특별시,11200,성동구,11200660,성수1가2동,1120011400,성수동1가,1.12001E+18,1,대지,656,1766,서울특별시 성동구 성수동1가 656-1766,1.12004E+11,서울특별시 성동구 왕십리로14길,7,,1.12001E+24,,서울특별시 성동구 왕십리로14길 7,133823,4788,,1,,127.0450178,37.54946106
MA010120220806557985,커피나무어린이대공원역점,,I2,음식,I212,비알코올 ,I21201,카페,I56221,커피 전문점,11,서울특별시,11215,광진구,11215730,군자동,1121510900,군자동,1.12151E+18,1,대지,368,1,서울특별시 광진구 군자동 368-1,1.12154E+11,서울특별시 광진구 광나루로19길,38,,1.12151E+24,,서울특별시 광진구 광나루로19길 38,143840,5005,,2,,127.0732102,37.5493343
MA010120220806562910,비엔나커피하우스건대스타시티점,,I2,음식,I212,비알코올 ,I21201,카페,I56221,커피 전문점,11,서울특별시,11215,광진구,11215840,자양3동,1121510500,자양동,1.12151E+18,1,대지,227,342,서울특별시 광진구 자양동 227-342,1.12153E+11,서울특별시 광진구 능동로,92,,1.12151E+24,롯데백화점,서울특별시 광진구 능동로 92,143854,5065,,2,,127.0711996,37.53899245
MA010120220806555420,팬시,,I2,음식,I212,비알코올 ,I21201,카페,I56221,커피 전문점,11,서울특별시,11215,광진구,11215760,중곡3동,1121510100,중곡동,1.12151E+18,1,대지,236,7,서울특별시 광진구 중곡동 236-7,1.12153E+11,서울특별시 광진구 동일로,411,,1.12151E+24,,서울특별시 광진구 동일로 411,143223,4900,,1,,127.0778663,37.56731065
MA010120220806552705,뜨아아아커피집,,I2,음식,I212,비알코올 ,I21201,카페,I56221,커피 전문점,11,서울특별시,11200,성동구,11200560,행당1동,1120010700,행당동,1.12001E+18,1,대지,264,,서울특별시 성동구 행당동 264,1.12004E+11,서울특별시 성동구 고산자로12길,1,1,1.12001E+24,,서울특별시 성동구 고산자로12길 1-1,133867,4744,,,,127.0350317,37.5603366
MA010120220806547649,빽다방용마산역점,,I2,음식,I212,비알코올 ,I21201,카페,I56221,커피 전문점,11,서울특별시,11260,중랑구,11260540,면목4동,1126010100,면목동,1.12601E+18,1,대지,372,21,서울특별시 중랑구 면목동 372-21,1.12604E+11,서울특별시 중랑구 면목로27길,4,,1.12601E+24,,서울특별시 중랑구 면목로27길 4,131830,2244,,1,,127.0851168,37.57516113
MA010120220806545907,리스펙트,,I2,음식,I212,비알코올 ,I21201,카페,I56221,커피 전문점,11,서울특별시,11260,중랑구,11260620,묵1동,1126010400,묵동,1.12601E+18,1,대지,175,5,서울특별시 중랑구 묵동 175-5,1.12603E+11,서울특별시 중랑구 공릉로,21,,1.12601E+24,진송회관,서울특별시 중랑구 공릉로 21,131848,2033,,1,,127.0777255,37.61267716
MA010120220806570378,카페라제스,,I2,음식,I212,비알코올 ,I21201,카페,I56221,커피 전문점,11,서울특별시,11200,성동구,11200535,왕십리도선동,1120010200,하왕십리동,1.12001E+18,1,대지,1070,,서울특별시 성동구 하왕십리동 1070,1.12003E+11,서울특별시 성동구 왕십리로,410,,1.12001E+24,센트라스,서울특별시 성동구 왕십리로 410,133020,4701,,1,,127.0240621,37.56654474
MA010120220806571178,어블리,,I2,음식,I212,비알코올 ,I21201,카페,I56221,커피 전문점,11,서울특별시,11215,광진구,11215730,군자동,1121510900,군자동,1.12151E+18,1,대지,467,1,서울특별시 광진구 군자동 467-1,1.12152E+11,서울특별시 광진구 천호대로,516,,1.12151E+24,,서울특별시 광진구 천호대로 516,143838,4994,,1,,127.0756682,37.55831901
MA010120220806566589,아지트,,I2,음식,I212,비알코올 ,I21201,카페,I56221,커피 전문점,11,서울특별시,11260,중랑구,11260690,신내2동,1126010600,신내동,1.12601E+18,1,대지,537,16,서울특별시 중랑구 신내동 537-16,1.12604E+11,서울특별시 중랑구 신내로7가길,10,15,1.12601E+24,,서울특별시 중랑구 신내로7가길 10-15,131870,2085,,1,,127.0952955,37.60313596
MA010120220806564134,팔공티건대,,I2,음식,I212,비알코올 ,I21201,카페,I56229,기타 비알코올 음료점업,11,서울특별시,11215,광진구,11215710,화양동,1121510700,화양동,1.12151E+18,1,대지,12,30,서울특별시 광진구 화양동 12-30,1.12154E+11,서울특별시 광진구 아차산로33길,63,,1.12151E+24,,서울특별시 광진구 아차산로33길 63,143914,5011,,1,,127.0709574,37.54300924
MA010120220806561948,체리커피,,I2,음식,I212,비알코올 ,I21201,카페,I56221,커피 전문점,11,서울특별시,11215,광진구,11215780,능동,1121510200,능동,1.12151E+18,1,대지,282,1,서울특별시 광진구 능동 282-1,1.12153E+11,서울특별시 광진구 능동로,284,,1.12151E+24,,서울특별시 광진구 능동로 284,143847,4989,,2,,127.0787067,37.55514404
MA010120220806580189,엘콕,,I2,음식,I212,비알코올 ,I21201,카페,I56221,커피 전문점,11,서울특별시,11230,동대문구,11230710,회기동,1123010800,회기동,1.12301E+18,1,대지,348,5,서울특별시 동대문구 회기동 348-5,1.12304E+11,서울특별시 동대문구 회기로25길,26,,1.12301E+24,,서울특별시 동대문구 회기로25길 26,130881,2452,,1,,127.055798,37.59110401
MA010120220806610055,달키스,,I2,음식,I212,비알코올 ,I21201,카페,I56221,커피 전문점,11,서울특별시,11260,중랑구,11260620,묵1동,1126010400,묵동,1.12601E+18,1,대지,68,10,서울특별시 중랑구 묵동 68-10,1.12604E+11,서울특별시 중랑구 공릉로12나길,28,,1.12601E+24,,서울특별시 중랑구 공릉로12나길 28,131847,2030,,1,,127.082245,37.6163526
MA010120220806606375,매머드익스프레스외대점,,I2,음식,I212,비알코올 ,I21201,카페,I56221,커피 전문점,11,서울특별시,11230,동대문구,11230740,이문1동,1123011000,이문동,1.12301E+18,1,대지,288,25,서울특별시 동대문구 이문동 288-25,1.12303E+11,서울특별시 동대문구 휘경로,5,,1.12301E+24,,서울특별시 동대문구 휘경로 5,130830,2419,,1,,127.0607708,37.59636072
MA010120220806604323,에이미스,,I2,음식,I212,비알코올 ,I21201,카페,I56221,커피 전문점,11,서울특별시,11215,광진구,11215870,구의3동,1121510300,구의동,1.12151E+18,1,대지,587,,서울특별시 광진구 구의동 587,1.12153E+11,서울특별시 광진구 강변역로,2,,1.12151E+24,광진우체국,서울특별시 광진구 강변역로 2,143004,5048,,1,,127.0899419,37.53774175
MA010120220806603862,벨롱에스프레소,,I2,음식,I212,비알코올 ,I21201,카페,I56221,커피 전문점,11,서울특별시,11215,광진구,11215710,화양동,1121510700,화양동,1.12151E+18,1,대지,110,40,서울특별시 광진구 화양동 110-40,1.12154E+11,서울특별시 광진구 능동로17길,34,,1.12151E+24,,서울특별시 광진구 능동로17길 34,143915,5009,,1,,127.0716338,37.54686205
MA010120220806599695,오우드,,I2,음식,I212,비알코올 ,I21201,카페,I56221,커피 전문점,11,서울특별시,11200,성동구,11200690,성수2가3동,1120011500,성수동2가,1.12001E+18,1,대지,272,3,서울특별시 성동구 성수동2가 272-3,1.12004E+11,서울특별시 성동구 연무장길,101,1,1.12001E+24,,서울특별시 성동구 연무장길 101-1,133831,4787,,,,127.0605236,37.54123271
MA010120220806597757,이디야커피,,I2,음식,I212,비알코올 ,I21201,카페,I56221,커피 전문점,11,서울특별시,11200,성동구,11200550,사근동,1120010700,행당동,1.12001E+18,1,대지,14,1,서울특별시 성동구 행당동 14-1,1.12004E+11,서울특별시 성동구 사근동길,4,,1.12001E+24,대학약국,서울특별시 성동구 사근동길 4,133817,4762,,1,,127.0415675,37.55995734
MA010120220806620084,쥬스식스뚝섬역점,,I2,음식,I212,비알코올 ,I21201,카페,I56229,기타 비알코올 음료점업,11,서울특별시,11200,성동구,11200660,성수1가2동,1120011400,성수동1가,1.12001E+18,1,대지,14,18,서울특별시 성동구 성수동1가 14-18,1.12003E+11,서울특별시 성동구 아차산로,49,,1.12001E+24,서울숲코오롱디지털타워Ⅲ,서울특별시 성동구 아차산로 49,133822,4790,,1,,127.05002,37.54678024
MA010120220806615852,오르다빛,,I2,음식,I212,비알코올 ,I21201,카페,I56221,커피 전문점,11,서울특별시,11230,동대문구,11230660,장안2동,1123010600,장안동,1.12301E+18,1,대지,326,13,서울특별시 동대문구 장안동 326-13,1.12304E+11,서울특별시 동대문구 답십리로69길,71,,1.12301E+24,이제이빌딩,서울특별시 동대문구 답십리로69길 71,130839,2522,,1,,127.0739611,37.57553367
MA010120220806637970,공백,,I2,음식,I212,비알코올 ,I21201,카페,I56221,커피 전문점,11,서울특별시,11215,광진구,11215840,자양3동,1121510500,자양동,1.12151E+18,1,대지,474,14,서울특별시 광진구 자양동 474-14,1.12154E+11,서울특별시 광진구 자양번영로3길,37,,1.12151E+24,,서울특별시 광진구 자양번영로3길 37,143858,5094,,1,,127.0730395,37.53204177
MA010120220806639513,봄희,,I2,음식,I212,비알코올 ,I21201,카페,I56221,커피 전문점,11,서울특별시,11215,광진구,11215760,중곡3동,1121510100,중곡동,1.12151E+18,1,대지,198,35,서울특별시 광진구 중곡동 198-35,1.12154E+11,서울특별시 광진구 면목로16길,4,,1.12151E+24,,서울특별시 광진구 면목로16길 4,143902,4903,,1,,127.0833083,37.5693894
MA010120220806633495,떼루와,,I2,음식,I212,비알코올 ,I21201,카페,I56221,커피 전문점,11,서울특별시,11200,성동구,11200790,용답동,1120012200,용답동,1.12001E+18,1,대지,14,13,서울특별시 성동구 용답동 14-13,1.12004E+11,서울특별시 성동구 용답중앙15길,8,,1.12001E+24,,서울특별시 성동구 용답중앙15길 8,133847,4805,,1,,127.053411,37.56409859
MA010120220806626706,수수授受,,I2,음식,I212,비알코올 ,I21201,카페,I56229,기타 비알코올 음료점업,11,서울특별시,11215,광진구,11215780,능동,1121510200,능동,1.12151E+18,1,대지,257,2,서울특별시 광진구 능동 257-2,1.12154E+11,서울특별시 광진구 능동로36길,186,,1.12151E+24,,서울특별시 광진구 능동로36길 186,143849,4987,,2,,127.0882698,37.55239798
MA010120220806627269,어번던트,,I2,음식,I212,비알코올 ,I21201,카페,I56221,커피 전문점,11,서울특별시,11215,광진구,11215750,중곡2동,1121510100,중곡동,1.12151E+18,1,대지,139,2,서울특별시 광진구 중곡동 139-2,1.12154E+11,서울특별시 광진구 천호대로111길,20,,1.12151E+24,태양빌딩,서울특별시 광진구 천호대로111길 20,143891,4930,,1,,127.082507,37.55719198
MA010120220806656986,콩제,,I2,음식,I212,비알코올 ,I21201,카페,I56221,커피 전문점,11,서울특별시,11230,동대문구,11230536,용신동,1123010100,신설동,1.12301E+18,1,대지,45,2,서울특별시 동대문구 신설동 45-2,1.12303E+11,서울특별시 동대문구 한빛로,29,,1.12301E+24,로얄팰리스,서울특별시 동대문구 한빛로 29,130810,2581,,1,,127.0260253,37.5783376
MA010120220806652344,더크림,,I2,음식,I212,비알코올 ,I21201,카페,I56221,커피 전문점,11,서울특별시,11230,동대문구,11230660,장안2동,1123010600,장안동,1.12301E+18,1,대지,330,9,서울특별시 동대문구 장안동 330-9,1.12304E+11,서울특별시 동대문구 장한로28길,18,,1.12301E+24,,서울특별시 동대문구 장한로28길 18,130840,2523,,1,,127.0729868,37.57284992
MA010120220806643237,보그너커피,,I2,음식,I212,비알코올 ,I21201,카페,I56221,커피 전문점,11,서울특별시,11215,광진구,11215760,중곡3동,1121510100,중곡동,1.12151E+18,1,대지,166,12,서울특별시 광진구 중곡동 166-12,1.12153E+11,서울특별시 광진구 능동로,399,,1.12151E+24,,서울특별시 광진구 능동로 399,143900,4908,,1,,127.0834544,37.56485826
MA010120220806670225,이디야구의자양로점,,I2,음식,I212,비알코올 ,I21201,카페,I56221,커피 전문점,11,서울특별시,11215,광진구,11215860,구의2동,1121510300,구의동,1.12151E+18,1,대지,78,8,서울특별시 광진구 구의동 78-8,1.12153E+11,서울특별시 광진구 자양로,251,,1.12151E+24,,서울특별시 광진구 자양로 251,143819,4992,,1,,127.0892959,37.54899091
MA010120220806671357,미크컴퍼니,,I2,음식,I212,비알코올 ,I21201,카페,I56221,커피 전문점,11,서울특별시,11200,성동구,11200660,성수1가2동,1120011400,성수동1가,1.12001E+18,1,대지,656,974,서울특별시 성동구 성수동1가 656-974,1.12004E+11,서울특별시 성동구 아차산로1가길,11,,1.12001E+24,,서울특별시 성동구 아차산로1가길 11,133924,4788,,1,,127.0468177,37.5485295
MA010120220806668593,더벤티면목역점,,I2,음식,I212,비알코올 ,I21201,카페,I56221,커피 전문점,11,서울특별시,11260,중랑구,11260565,면목본동,1126010100,면목동,1.12601E+18,1,대지,105,8,서울특별시 중랑구 면목동 105-8,1.12603E+11,서울특별시 중랑구 겸재로,190,1,1.12601E+24,다온스테이트,서울특별시 중랑구 겸재로 190-1,131815,2197,,2,,127.0888045,37.588408
MA010120220806673079,카페수달하다,,I2,음식,I212,비알코올 ,I21201,카페,I56221,커피 전문점,11,서울특별시,11215,광진구,11215740,중곡1동,1121510100,중곡동,1.12151E+18,1,대지,635,1,서울특별시 광진구 중곡동 635-1,1.12154E+11,서울특별시 광진구 동일로62길,14,,1.12151E+24,,서울특별시 광진구 동일로62길 14,143912,4920,,,,127.0748929,37.55969155
MA010120220806660004,달리는커피,,I2,음식,I212,비알코올 ,I21201,카페,I56221,커피 전문점,11,서울특별시,11260,중랑구,11260565,면목본동,1126010100,면목동,1.12601E+18,1,대지,114,6,서울특별시 중랑구 면목동 114-6,1.12603E+11,서울특별시 중랑구 면목로,382,,1.12601E+24,休ELYSIAN,서울특별시 중랑구 면목로 382,131814,2205,,,,127.0885053,37.58601792
MA010120220806657703,레이어57,,I2,음식,I212,비알코올 ,I21201,카페,I56221,커피 전문점,11,서울특별시,11200,성동구,11200690,성수2가3동,1120011500,성수동2가,1.12001E+18,1,대지,276,8,서울특별시 성동구 성수동2가 276-8,1.12004E+11,서울특별시 성동구 성수이로20길,57,,1.12001E+24,,서울특별시 성동구 성수이로20길 57,133831,4787,,,,127.0630248,37.54209957
MA010120220806657975,공차사가정역점,,I2,음식,I212,비알코올 ,I21201,카페,I56229,기타 비알코올 음료점업,11,서울특별시,11260,중랑구,11260570,면목7동,1126010100,면목동,1.12601E+18,1,대지,634,4,서울특별시 중랑구 면목동 634-4,1.12603E+11,서울특별시 중랑구 면목로,313,,1.12601E+24,문이비인후과의원,서울특별시 중랑구 면목로 313,131828,2238,,1,,127.087989,37.58007604
MA010120220806658687,커피타다,,I2,음식,I212,비알코올 ,I21201,카페,I56221,커피 전문점,11,서울특별시,11215,광진구,11215850,구의1동,1121510300,구의동,1.12151E+18,1,대지,237,49,서울특별시 광진구 구의동 237-49,1.12154E+11,서울특별시 광진구 자양로28길,19,,1.12151E+24,,서울특별시 광진구 자양로28길 19,143824,5038,,1,,127.0853716,37.54228379
MA010120220806684244,훔볼트,,I2,음식,I212,비알코올 ,I21201,카페,I56221,커피 전문점,11,서울특별시,11200,성동구,11200670,성수2가1동,1120011500,성수동2가,1.12001E+18,1,대지,325,17,서울특별시 성동구 성수동2가 325-17,1.12003E+11,서울특별시 성동구 성수이로,58,,1.12001E+24,P-TOWER,서울특별시 성동구 성수이로 58,133827,4784,,2,,127.0555365,37.54008464
MA010120220806677482,플랫카페,,I2,음식,I212,비알코올 ,I21201,카페,I56221,커피 전문점,11,서울특별시,11215,광진구,11215850,구의1동,1121510300,구의동,1.12151E+18,1,대지,635,2,서울특별시 광진구 구의동 635-2,1.12154E+11,서울특별시 광진구 자양로23길,73,,1.12151E+24,에프앤빌딩(F&BUILDING),서울특별시 광진구 자양로23길 73,143835,5023,,1,,127.0836809,37.54358621
MA010120220806704987,프로젝트비,,I2,음식,I212,비알코올 ,I21201,카페,I56229,기타 비알코올 음료점업,11,서울특별시,11200,성동구,11200660,성수1가2동,1120011400,성수동1가,1.12001E+18,1,대지,656,1835,서울특별시 성동구 성수동1가 656-1835,1.12004E+11,서울특별시 성동구 왕십리로16가길,24,,1.12001E+24,,서울특별시 성동구 왕십리로16가길 24,133823,4788,,5,,127.0452146,37.5508863
MA010120220806707229,다이렉트커피,,I2,음식,I212,비알코올 ,I21201,카페,I56221,커피 전문점,11,서울특별시,11260,중랑구,11260680,신내1동,1126010600,신내동,1.12601E+18,1,대지,478,22,서울특별시 중랑구 신내동 478-22,1.12604E+11,서울특별시 중랑구 봉화산로56길,120,,1.12601E+24,,서울특별시 중랑구 봉화산로56길 120,131869,2069,,1,,127.0970924,37.60344706
MA010120220806698168,정성,,I2,음식,I212,비알코올 ,I21201,카페,I56221,커피 전문점,11,서울특별시,11230,동대문구,11230570,전농2동,1123010400,전농동,1.12301E+18,1,대지,60,33,서울특별시 동대문구 전농동 60-33,1.12303E+11,서울특별시 동대문구 전농로,156,,1.12301E+24,,서울특별시 동대문구 전농로 156,130850,2506,,1,,127.0572109,37.57873496
MA010120220806700247,탐앤탐스사가정역점,,I2,음식,I212,비알코올 ,I21201,카페,I56221,커피 전문점,11,서울특별시,11260,중랑구,11260575,면목3.8동,1126010100,면목동,1.12601E+18,1,대지,496,17,서울특별시 중랑구 면목동 496-17,1.12604E+11,서울특별시 중랑구 면목로45길,3,10,1.12601E+24,,서울특별시 중랑구 면목로45길 3-10,131831,2228,,2,,127.0881674,37.58123076
MA010120220806697623,에이밀,,I2,음식,I212,비알코올 ,I21201,카페,I56221,커피 전문점,11,서울특별시,11215,광진구,11215730,군자동,1121510900,군자동,1.12151E+18,1,대지,476,2,서울특별시 광진구 군자동 476-2,1.12153E+11,서울특별시 광진구 군자로,180,,1.12151E+24,한창빌딩,서울특별시 광진구 군자로 180,143838,4997,,,,127.0781462,37.55653629
MA010120220806693251,더블에이치,,I2,음식,I212,비알코올 ,I21201,카페,I56221,커피 전문점,11,서울특별시,11230,동대문구,11230536,용신동,1123010200,용두동,1.12301E+18,1,대지,712,68,서울특별시 동대문구 용두동 712-68,1.12303E+11,서울특별시 동대문구 왕산로,106,,1.12301E+24,,서울특별시 동대문구 왕산로 106,130819,2566,,1,,127.0351215,37.57794376
MA010120220806725485,심플십,,I2,음식,I212,비알코올 ,I21201,카페,I56221,커피 전문점,11,서울특별시,11200,성동구,11200645,옥수동,1120011300,옥수동,1.12001E+18,1,대지,265,1,서울특별시 성동구 옥수동 265-1,1.12003E+11,서울특별시 성동구 독서당로,204,,1.12001E+24,,서울특별시 성동구 독서당로 204,133839,4734,,,,127.0136054,37.5431658
MA010120220806720959,마시그래이경희대점,,I2,음식,I212,비알코올 ,I21201,카페,I56221,커피 전문점,11,서울특별시,11230,동대문구,11230710,회기동,1123010800,회기동,1.12301E+18,1,대지,33,1,서울특별시 동대문구 회기동 33-1,1.12303E+11,서울특별시 동대문구 경희대로,20,,1.12301E+24,,서울특별시 동대문구 경희대로 20,130872,2453,,1,,127.0528933,37.59335137
MA010120220806738325,블리스버거,,I2,음식,I212,비알코올 ,I21201,카페,I56221,커피 전문점,11,서울특별시,11230,동대문구,11230650,장안1동,1123010600,장안동,1.12301E+18,1,대지,336,,서울특별시 동대문구 장안동 336,1.12303E+11,서울특별시 동대문구 장안벚꽃로,107,,1.12301E+24,장안현대홈타운,서울특별시 동대문구 장안벚꽃로 107,130719,2638,,1,,127.0750691,37.57107317
MA010120220806737702,디카페,,I2,음식,I212,비알코올 ,I21201,카페,I56221,커피 전문점,11,서울특별시,11260,중랑구,11260575,면목3.8동,1126010100,면목동,1.12601E+18,1,대지,20,9,서울특별시 중랑구 면목동 20-9,1.12603E+11,서울특별시 중랑구 용마산로,421,1,1.12601E+24,,서울특별시 중랑구 용마산로 421-1,131811,2201,,1,,127.0964377,37.58922356
MA010120220806731495,고망고건대,,I2,음식,I212,비알코올 ,I21201,카페,I56229,기타 비알코올 음료점업,11,서울특별시,11215,광진구,11215847,자양4동,1121510500,자양동,1.12151E+18,1,대지,8,22,서울특별시 광진구 자양동 8-22,1.12154E+11,서울특별시 광진구 아차산로30길,8,,1.12151E+24,,서울특별시 광진구 아차산로30길 8,143841,5072,,1,,127.0675951,37.54039672
MA010120220806726600,11월,,I2,음식,I212,비알코올 ,I21201,카페,I56221,커피 전문점,11,서울특별시,11260,중랑구,11260575,면목3.8동,1126010100,면목동,1.12601E+18,1,대지,467,5,서울특별시 중랑구 면목동 467-5,1.12604E+11,서울특별시 중랑구 면목로48길,68,,1.12601E+24,,서울특별시 중랑구 면목로48길 68,131813,2212,,1,,127.0923827,37.58187595
MA010120220806723285,티핀,,I2,음식,I212,비알코올 ,I21201,카페,I56229,기타 비알코올 음료점업,11,서울특별시,11200,성동구,11200650,성수1가1동,1120011400,성수동1가,1.12001E+18,1,대지,658,1,서울특별시 성동구 성수동1가 658-1,1.12003E+11,서울특별시 성동구 왕십리로,84,,1.12001E+24,,서울특별시 성동구 왕십리로 84,133821,4778,,1,,127.0450275,37.54515412
MA010120220806760736,에이투비AtoB,,I2,음식,I212,비알코올 ,I21201,카페,I56221,커피 전문점,11,서울특별시,11200,성동구,11200690,성수2가3동,1120011500,성수동2가,1.12001E+18,1,대지,277,56,서울특별시 성동구 성수동2가 277-56,1.12003E+11,서울특별시 성동구 아차산로,135,,1.12001E+24,,서울특별시 성동구 아차산로 135,133832,4797,,2,,127.0589507,37.54393235
MA010120220806762747,넬솜커피,,I2,음식,I212,비알코올 ,I21201,카페,I56221,커피 전문점,11,서울특별시,11215,광진구,11215760,중곡3동,1121510100,중곡동,1.12151E+18,1,대지,545,2,서울특별시 광진구 중곡동 545-2,1.12153E+11,서울특별시 광진구 답십리로,398,,1.12151E+24,,서울특별시 광진구 답십리로 398,143909,4903,,1,,127.0846581,37.57102176
MA010120220806787029,동네커피,,I2,음식,I212,비알코올 ,I21201,카페,I56221,커피 전문점,11,서울특별시,11200,성동구,11200790,용답동,1120012200,용답동,1.12001E+18,1,대지,57,14,서울특별시 성동구 용답동 57-14,1.12004E+11,서울특별시 성동구 용답중앙길,57,,1.12001E+24,,서울특별시 성동구 용답중앙길 57,133848,4804,,1,,127.0524245,37.56423484
MA010120220806787835,달리는커피,,I2,음식,I212,비알코올 ,I21201,카페,I56192,"피자, 햄버거, 샌드위치 및 유사 음식점업",11,서울특별시,11215,광진구,11215810,광장동,1121510400,광장동,1.12151E+18,1,대지,281,4,서울특별시 광진구 광장동 281-4,1.12153E+11,서울특별시 광진구 광장로,78,,1.12151E+24,광성빌딩,서울특별시 광진구 광장로 78,143806,4968,,1,,127.1056204,37.54760192
MA010120220806785155,월드베브릿지한국외대점,,I2,음식,I212,비알코올 ,I21201,카페,I56229,기타 비알코올 음료점업,11,서울특별시,11230,동대문구,11230740,이문1동,1123011000,이문동,1.12301E+18,1,대지,288,63,서울특별시 동대문구 이문동 288-63,1.12303E+11,서울특별시 동대문구 휘경로,4,10,1.12301E+24,서률궁,서울특별시 동대문구 휘경로 4-10,130830,2440,,1,,127.0602785,37.59588826
MA010120220806779253,북카페,,I2,음식,I212,비알코올 ,I21201,카페,I56221,커피 전문점,11,서울특별시,11230,동대문구,11230536,용신동,1123010200,용두동,1.12301E+18,1,대지,29,3,서울특별시 동대문구 용두동 29-3,1.12304E+11,서울특별시 동대문구 고산자로28길,13,,1.12301E+24,용두문화복지센터,서울특별시 동대문구 고산자로28길 13,130817,2565,,2,,127.0391293,37.57530035
MA010120220806775282,스템커피,,I2,음식,I212,비알코올 ,I21201,카페,I56221,커피 전문점,11,서울특별시,11260,중랑구,11260590,상봉2동,1126010200,상봉동,1.12601E+18,1,대지,130,172,서울특별시 중랑구 상봉동 130-172,1.12604E+11,서울특별시 중랑구 망우로30길,3,,1.12601E+24,안산빌딩,서울특별시 중랑구 망우로30길 3,131861,2120,,4,,127.0747289,37.59307404
MA010120220806807200,"과일에반하다,프루타",,I2,음식,I212,비알코올 ,I21201,카페,I56221,커피 전문점,11,서울특별시,11215,광진구,11215710,화양동,1121510700,화양동,1.12151E+18,1,대지,45,71,서울특별시 광진구 화양동 45-71,1.12154E+11,서울특별시 광진구 동일로22길,31,,1.12151E+24,,서울특별시 광진구 동일로22길 31,143917,5019,,1,,127.0660334,37.54222252
MA010120220806794480,99도버블티,,I2,음식,I212,비알코올 ,I21201,카페,I56221,커피 전문점,11,서울특별시,11215,광진구,11215847,자양4동,1121510500,자양동,1.12151E+18,1,대지,6,76,서울특별시 광진구 자양동 6-76,1.12154E+11,서울특별시 광진구 동일로20길,86,,1.12151E+24,,서울특별시 광진구 동일로20길 86,143841,5073,,1,,127.0682113,37.53997809
MA010120220806818481,오늘도빙수행당점,,I2,음식,I212,비알코올 ,I21201,카페,I56221,커피 전문점,11,서울특별시,11200,성동구,11200560,행당1동,1120010700,행당동,1.12001E+18,1,대지,309,1,서울특별시 성동구 행당동 309-1,1.12004E+11,서울특별시 성동구 무학봉16길,26,9,1.12001E+24,,서울특별시 성동구 무학봉16길 26-9,133872,4714,,1,,127.0330485,37.5596536
MA010120220806818487,에그카페24,,I2,음식,I212,비알코올 ,I21201,카페,I56221,커피 전문점,11,서울특별시,11260,중랑구,11260690,신내2동,1126010600,신내동,1.12601E+18,1,대지,657,,서울특별시 중랑구 신내동 657,1.12603E+11,서울특별시 중랑구 신내로,127,,1.12601E+24,신내9단지신내아파트,서울특별시 중랑구 신내로 127,131789,2026,,,,127.0956323,37.61086048
MA010120220806815309,커피데이즈,,I2,음식,I212,비알코올 ,I21201,카페,I56221,커피 전문점,11,서울특별시,11215,광진구,11215810,광장동,1121510400,광장동,1.12151E+18,1,대지,237,,서울특별시 광진구 광장동 237,1.12153E+11,서울특별시 광진구 아차산로,571,,1.12151E+24,광나루역5호선,서울특별시 광진구 아차산로 571,143805,4983,,2,,127.1036678,37.54527141
MA010120220806809797,그늘집,,I2,음식,I212,비알코올 ,I21201,카페,I56221,커피 전문점,11,서울특별시,11200,성동구,11200790,용답동,1120012200,용답동,1.12001E+18,1,대지,182,11,서울특별시 성동구 용답동 182-11,1.12004E+11,서울특별시 성동구 자동차시장길,42,,1.12001E+24,,서울특별시 성동구 자동차시장길 42,133847,4806,,2,,127.0557064,37.55980095
MA010120220806834298,시도,,I2,음식,I212,비알코올 ,I21201,카페,I56221,커피 전문점,11,서울특별시,11215,광진구,11215860,구의2동,1121510300,구의동,1.12151E+18,1,대지,72,26,서울특별시 광진구 구의동 72-26,1.12154E+11,서울특별시 광진구 자양로40길,15,6,1.12151E+24,,서울특별시 광진구 자양로40길 15-6,143819,4975,,,,127.0901991,37.54824099
MA010120220806847778,이디야커피건대역점,,I2,음식,I212,비알코올 ,I21201,카페,I56221,커피 전문점,11,서울특별시,11215,광진구,11215710,화양동,1121510700,화양동,1.12151E+18,1,대지,7,3,서울특별시 광진구 화양동 7-3,1.12153E+11,서울특별시 광진구 아차산로,229,,1.12151E+24,한림타워,서울특별시 광진구 아차산로 229,143717,5018,,1,,127.0689935,37.54077718
MA010120220806848498,카페와로또,,I2,음식,I212,비알코올 ,I21201,카페,I56221,커피 전문점,11,서울특별시,11200,성동구,11200790,용답동,1120012200,용답동,1.12001E+18,1,대지,49,17,서울특별시 성동구 용답동 49-17,1.12004E+11,서울특별시 성동구 용답19길,11,,1.12001E+24,,서울특별시 성동구 용답19길 11,133848,4804,,,,127.052097,37.56327711
MA010120220806843280,커피에반하다중곡,,I2,음식,I212,비알코올 ,I21201,카페,I56221,커피 전문점,11,서울특별시,11215,광진구,11215740,중곡1동,1121510100,중곡동,1.12151E+18,1,대지,231,7,서울특별시 광진구 중곡동 231-7,1.12153E+11,서울특별시 광진구 면목로,117,,1.12151E+24,바론채,서울특별시 광진구 면목로 117,143903,4911,,1,,127.0800684,37.56405702
MA010120220806838361,스테치,,I2,음식,I212,비알코올 ,I21201,카페,I56221,커피 전문점,11,서울특별시,11200,성동구,11200690,성수2가3동,1120011500,성수동2가,1.12001E+18,1,대지,315,12,서울특별시 성동구 성수동2가 315-12,1.12004E+11,서울특별시 성동구 연무장9길,6,,1.12001E+24,,서울특별시 성동구 연무장9길 6,133835,4782,,2,,127.0559206,37.5428269
MA010120220806839642,309디저트카페,,I2,음식,I212,비알코올 ,I21201,카페,I56221,커피 전문점,11,서울특별시,11200,성동구,11200670,성수2가1동,1120011500,성수동2가,1.12001E+18,1,대지,309,144,서울특별시 성동구 성수동2가 309-144,1.12004E+11,서울특별시 성동구 성수이로7길,24,,1.12001E+24,신원지기공업사,서울특별시 성동구 성수이로7길 24,133827,4781,,1,,127.0543871,37.54149009
MA010120220806867167,도깨비보드카페,,I2,음식,I212,비알코올 ,I21201,카페,I56221,커피 전문점,11,서울특별시,11230,동대문구,11230740,이문1동,1123011000,이문동,1.12301E+18,1,대지,288,54,서울특별시 동대문구 이문동 288-54,1.12304E+11,서울특별시 동대문구 이문로28길,11,,1.12301E+24,,서울특별시 동대문구 이문로28길 11,130830,2440,,1,,127.060518,37.59575501
MA010120220806866804,장일커피숍,,I2,음식,I212,비알코올 ,I21201,카페,I56229,기타 비알코올 음료점업,11,서울특별시,11230,동대문구,11230650,장안1동,1123010600,장안동,1.12301E+18,1,대지,389,6,서울특별시 동대문구 장안동 389-6,1.12304E+11,서울특별시 동대문구 답십리로66길,25,,1.12301E+24,,서울특별시 동대문구 답십리로66길 25,130842,2624,,,,127.0679675,37.57136872
MA010120220806868072,라비타37,,I2,음식,I212,비알코올 ,I21201,카페,I56221,커피 전문점,11,서울특별시,11215,광진구,11215860,구의2동,1121510300,구의동,1.12151E+18,1,대지,80,37,서울특별시 광진구 구의동 80-37,1.12153E+11,서울특별시 광진구 자양로,203,,1.12151E+24,스타파크아파트,서울특별시 광진구 자양로 203,143819,4991,,1,,127.0855451,37.5456821
MA010120220806860585,너디블루버로우,,I2,음식,I212,비알코올 ,I21201,카페,I56221,커피 전문점,11,서울특별시,11200,성동구,11200560,행당1동,1120010700,행당동,1.12001E+18,1,대지,253,1,서울특별시 성동구 행당동 253-1,1.12004E+11,서울특별시 성동구 고산자로12길,15,,1.12001E+24,,서울특별시 성동구 고산자로12길 15,133867,4744,,1,,127.0359568,37.55969541
MA010120220806860901,빙츄르,,I2,음식,I212,비알코올 ,I21201,카페,I56229,기타 비알코올 음료점업,11,서울특별시,11215,광진구,11215850,구의1동,1121510300,구의동,1.12151E+18,1,대지,254,54,서울특별시 광진구 구의동 254-54,1.12153E+11,서울특별시 광진구 자양로,153,,1.12151E+24,,서울특별시 광진구 자양로 153,143827,5024,,1,,127.0836148,37.54159438
MA010120220806882365,커피브라운묵동점,,I2,음식,I212,비알코올 ,I21201,카페,I56221,커피 전문점,11,서울특별시,11260,중랑구,11260620,묵1동,1126010400,묵동,1.12601E+18,1,대지,169,10,서울특별시 중랑구 묵동 169-10,1.12603E+11,서울특별시 중랑구 동일로,946,,1.12601E+24,묵동신도주상복합아파트,서울특별시 중랑구 동일로 946,131848,2033,,,,127.0769716,37.61502298
MA010120220806884159,그릭&샐러드,,I2,음식,I212,비알코올 ,I21201,카페,I56221,커피 전문점,11,서울특별시,11230,동대문구,11230536,용신동,1123010100,신설동,1.12301E+18,1,대지,39,1,서울특별시 동대문구 신설동 39-1,1.12303E+11,서울특별시 동대문구 한빛로,25,,1.12301E+24,,서울특별시 동대문구 한빛로 25,130810,2581,,,,127.0255999,37.57797367
MA010120220806877307,짙은,,I2,음식,I212,비알코올 ,I21201,카페,I56221,커피 전문점,11,서울특별시,11200,성동구,11200550,사근동,1120010700,행당동,1.12001E+18,1,대지,4,34,서울특별시 성동구 행당동 4-34,1.12004E+11,서울특별시 성동구 마조로5길,4,5,1.12001E+24,,서울특별시 성동구 마조로5길 4-5,133817,4760,,1,,127.0405675,37.56026458
MA010120220806875215,쿠소이,,I2,음식,I212,비알코올 ,I21201,카페,I56221,커피 전문점,11,서울특별시,11200,성동구,11200645,옥수동,1120011300,옥수동,1.12001E+18,1,대지,201,1,서울특별시 성동구 옥수동 201-1,1.12004E+11,서울특별시 성동구 한림말길,33,,1.12001E+24,청훈빌딩,서울특별시 성동구 한림말길 33,133839,4735,,1,,127.0147325,37.5409316
MA010120220806875455,스포라도씨즈유어데이,,I2,음식,I212,비알코올 ,I21201,카페,I56221,커피 전문점,11,서울특별시,11215,광진구,11215770,중곡4동,1121510100,중곡동,1.12151E+18,1,대지,18,55,서울특별시 광진구 중곡동 18-55,1.12153E+11,서울특별시 광진구 용마산로,146,1,1.12151E+24,,서울특별시 광진구 용마산로 146-1,143883,4940,,,,127.0867263,37.56666769
MA010120220806880475,카페502호,,I2,음식,I212,비알코올 ,I21201,카페,I56221,커피 전문점,11,서울특별시,11260,중랑구,11260590,상봉2동,1126010200,상봉동,1.12601E+18,1,대지,129,9,서울특별시 중랑구 상봉동 129-9,1.12604E+11,서울특별시 중랑구 망우로32길,23,,1.12601E+24,중랑교쇼핑센터,서울특별시 중랑구 망우로32길 23,131861,2121,,1,,127.0770972,37.59293941
MA010120220806873419,일카페,,I2,음식,I212,비알코올 ,I21201,카페,I56221,커피 전문점,11,서울특별시,11200,성동구,11200790,용답동,1120012200,용답동,1.12001E+18,1,대지,229,10,서울특별시 성동구 용답동 229-10,1.12004E+11,서울특별시 성동구 자동차시장1길,39,,1.12001E+24,어반오피스텔,서울특별시 성동구 자동차시장1길 39,133850,4808,,1,,127.0619933,37.56120264
MA010120220806902142,매머드익스프레스면목,,I2,음식,I212,비알코올 ,I21201,카페,I56221,커피 전문점,11,서울특별시,11260,중랑구,11260570,면목7동,1126010100,면목동,1.12601E+18,1,대지,341,40,서울특별시 중랑구 면목동 341-40,1.12604E+11,서울특별시 중랑구 면목로33길,38,,1.12601E+24,,서울특별시 중랑구 면목로33길 38,131825,2241,,1,,127.0836831,37.57668179
MA010120220806898109,화이트비치,,I2,음식,I212,비알코올 ,I21201,카페,I56221,커피 전문점,11,서울특별시,11200,성동구,11200535,왕십리도선동,1120010200,하왕십리동,1.12001E+18,1,대지,1070,,서울특별시 성동구 하왕십리동 1070,1.12003E+11,서울특별시 성동구 왕십리로,410,,1.12001E+24,센트라스,서울특별시 성동구 왕십리로 410,133020,4701,,1,,127.0240621,37.56654474
MA010120220806900604,그레이우드커피,,I2,음식,I212,비알코올 ,I21201,카페,I56221,커피 전문점,11,서울특별시,11200,성동구,11200790,용답동,1120012200,용답동,1.12001E+18,1,대지,235,8,서울특별시 성동구 용답동 235-8,1.12004E+11,서울특별시 성동구 자동차시장1길,85,,1.12001E+24,JS빌딩,서울특별시 성동구 자동차시장1길 85,133850,4808,,1,,127.0671291,37.56053151
MA010120220806908286,쥬씨&차얌,,I2,음식,I212,비알코올 ,I21201,카페,I56229,기타 비알코올 음료점업,11,서울특별시,11230,동대문구,11230740,이문1동,1123011000,이문동,1.12301E+18,1,대지,288,48,서울특별시 동대문구 이문동 288-48,1.12303E+11,서울특별시 동대문구 휘경로,8,,1.12301E+24,,서울특별시 동대문구 휘경로 8,130830,2440,,1,,127.0608883,37.59601926
MA010120220806902444,이도카페,,I2,음식,I212,비알코올 ,I21201,카페,I56221,커피 전문점,11,서울특별시,11200,성동구,11200790,용답동,1120012200,용답동,1.12001E+18,1,대지,227,13,서울특별시 성동구 용답동 227-13,1.12004E+11,서울특별시 성동구 자동차시장1길,30,,1.12001E+24,,서울특별시 성동구 자동차시장1길 30,133847,4808,,1,,127.0607608,37.56110274
MA010120220806903273,코지카커피,,I2,음식,I212,비알코올 ,I21201,카페,I56221,커피 전문점,11,서울특별시,11215,광진구,11215830,자양2동,1121510500,자양동,1.12151E+18,1,대지,597,42,서울특별시 광진구 자양동 597-42,1.12154E+11,서울특별시 광진구 자양번영로4길,42,22,1.12151E+24,,서울특별시 광진구 자양번영로4길 42-22,143865,5099,,1,,127.0771921,37.53019109
MA010120220806908674,똑똑카페,,I2,음식,I212,비알코올 ,I21201,카페,I56221,커피 전문점,11,서울특별시,11260,중랑구,11260655,망우본동,1126010500,망우동,1.12601E+18,1,대지,617,6,서울특별시 중랑구 망우동 617-6,1.12605E+11,서울특별시 중랑구 양원역로14나길,21,,1.12601E+24,세종에코그린,서울특별시 중랑구 양원역로14나길 21,131231,2057,,1,,127.1069811,37.60709945
MA010120220806933476,헬로펠라스,,I2,음식,I212,비알코올 ,I21201,카페,I56221,커피 전문점,11,서울특별시,11230,동대문구,11230740,이문1동,1123011000,이문동,1.12301E+18,1,대지,264,363,서울특별시 동대문구 이문동 264-363,1.12304E+11,서울특별시 동대문구 천장산로7길,62,,1.12301E+24,,서울특별시 동대문구 천장산로7길 62,130829,2449,,2,,127.0544621,37.59823858
MA010120220806932875,플랜트랩,,I2,음식,I212,비알코올 ,I21201,카페,I56221,커피 전문점,11,서울특별시,11230,동대문구,11230660,장안2동,1123010600,장안동,1.12301E+18,1,대지,321,14,서울특별시 동대문구 장안동 321-14,1.12304E+11,서울특별시 동대문구 장한로28가길,70,,1.12301E+24,,서울특별시 동대문구 장한로28가길 70,130839,2522,,1,,127.072946,37.57613842
MA010120220806924595,카페1221,,I2,음식,I212,비알코올 ,I21201,카페,I56221,커피 전문점,11,서울특별시,11260,중랑구,11260600,중화1동,1126010300,중화동,1.12601E+18,1,대지,16,5,서울특별시 중랑구 중화동 16-5,1.12604E+11,서울특별시 중랑구 봉화산로27나길,16,,1.12601E+24,,서울특별시 중랑구 봉화산로27나길 16,131875,2049,,1,,127.082595,37.60261443
MA010120220806923098,카페달토끼,,I2,음식,I212,비알코올 ,I21201,카페,I56221,커피 전문점,11,서울특별시,11230,동대문구,11230545,제기동,1123010300,제기동,1.12301E+18,1,대지,218,4,서울특별시 동대문구 제기동 218-4,1.12304E+11,서울특별시 동대문구 약령시로5길,22,4,1.12301E+24,해오름,서울특별시 동대문구 약령시로5길 22-4,130861,2476,,1,,127.0341197,37.58363016
MA010120220806953656,멕커피,,I2,음식,I212,비알코올 ,I21201,카페,I56221,커피 전문점,11,서울특별시,11230,동대문구,11230730,휘경2동,1123010900,휘경동,1.12301E+18,1,대지,34,3,서울특별시 동대문구 휘경동 34-3,1.12303E+11,서울특별시 동대문구 외대역동로,19,,1.12301E+24,,서울특별시 동대문구 외대역동로 19,130874,2501,,1,,127.0673477,37.59111474
MA010120220806940926,무인공유카페큐,,I2,음식,I212,비알코올 ,I21201,카페,I56221,커피 전문점,11,서울특별시,11260,중랑구,11260580,상봉1동,1126010200,상봉동,1.12601E+18,1,대지,220,8,서울특별시 중랑구 상봉동 220-8,1.12603E+11,서울특별시 중랑구 상봉중앙로,56,,1.12601E+24,,서울특별시 중랑구 상봉중앙로 56,131862,2074,,1,,127.0874031,37.60210207
MA010120220806937555,메가엠지씨커피,,I2,음식,I212,비알코올 ,I21201,카페,I56221,커피 전문점,11,서울특별시,11215,광진구,11215770,중곡4동,1121510100,중곡동,1.12151E+18,1,대지,115,22,서울특별시 광진구 중곡동 115-22,1.12154E+11,서울특별시 광진구 자양로43길,47,,1.12151E+24,,서울특별시 광진구 자양로43길 47,143889,4953,,,,127.0901342,37.55264663
MA010120220806941737,역전,,I2,음식,I212,비알코올 ,I21201,카페,I56221,커피 전문점,11,서울특별시,11230,동대문구,11230750,이문2동,1123011000,이문동,1.12301E+18,1,대지,220,179,서울특별시 동대문구 이문동 220-179,1.12303E+11,서울특별시 동대문구 신이문로,41,1,1.12301E+24,,서울특별시 동대문구 신이문로 41-1,130828,2409,,1,,127.0668458,37.60319376
MA010120220806968029,앤드밀,,I2,음식,I212,비알코올 ,I21201,카페,I56221,커피 전문점,11,서울특별시,11200,성동구,11200690,성수2가3동,1120011500,성수동2가,1.12001E+18,1,대지,301,18,서울특별시 성동구 성수동2가 301-18,1.12004E+11,서울특별시 성동구 연무장3길,5,1,1.12001E+24,,서울특별시 성동구 연무장3길 5-1,133835,4782,,3,,127.0513425,37.54422288
MA010120220806964255,라프리앙,,I2,음식,I212,비알코올 ,I21201,카페,I56221,커피 전문점,11,서울특별시,11215,광진구,11215870,구의3동,1121510300,구의동,1.12151E+18,1,대지,220,34,서울특별시 광진구 구의동 220-34,1.12153E+11,서울특별시 광진구 구의로,18,2,1.12151E+24,,서울특별시 광진구 구의로 18-2,143822,5045,,1,,127.0895258,37.53939648
MA010120220806963150,아델라,,I2,음식,I212,비알코올 ,I21201,카페,I56221,커피 전문점,11,서울특별시,11260,중랑구,11260620,묵1동,1126010400,묵동,1.12601E+18,1,대지,161,8,서울특별시 중랑구 묵동 161-8,1.12603E+11,서울특별시 중랑구 중랑역로,273,,1.12601E+24,,서울특별시 중랑구 중랑역로 273,131848,2018,,1,,127.0784154,37.61643088
MA010120220806961885,카페아이엔지한양대인문관점,,I2,음식,I212,비알코올 ,I21201,카페,I56221,커피 전문점,11,서울특별시,11200,성동구,11200550,사근동,1120010700,행당동,1.12001E+18,1,대지,17,,서울특별시 성동구 행당동 17,1.12003E+11,서울특별시 성동구 왕십리로,222,,1.12001E+24,한양대학교,서울특별시 성동구 왕십리로 222,133791,4763,,1,,127.0465947,37.55449264
MA010120220806956078,돌체스터,,I2,음식,I212,비알코올 ,I21201,카페,I56221,커피 전문점,11,서울특별시,11260,중랑구,11260630,묵2동,1126010400,묵동,1.12601E+18,1,대지,234,1,서울특별시 중랑구 묵동 234-1,1.12603E+11,서울특별시 중랑구 동일로,951,,1.12601E+24,,서울특별시 중랑구 동일로 951,131851,2002,,2,,127.0760413,37.61514184
MA010120220806974902,키라쿠,,I2,음식,I212,비알코올 ,I21201,카페,I56221,커피 전문점,11,서울특별시,11230,동대문구,11230545,제기동,1123010300,제기동,1.12301E+18,1,대지,1152,13,서울특별시 동대문구 제기동 1152-13,1.12303E+11,서울특별시 동대문구 약령시로,5,1,1.12301E+24,아이리스빌딩,서울특별시 동대문구 약령시로 5-1,130864,2477,,1,,127.0302811,37.58278775
MA010120220806994373,와이엠상사,,I2,음식,I212,비알코올 ,I21201,카페,I56221,커피 전문점,11,서울특별시,11260,중랑구,11260630,묵2동,1126010400,묵동,1.12601E+18,1,대지,238,53,서울특별시 중랑구 묵동 238-53,1.12604E+11,서울특별시 중랑구 동일로169길,15,,1.12601E+24,,서울특별시 중랑구 동일로169길 15,131851,2005,,1,,127.0759005,37.61370809
MA010120220806997498,봄애,,I2,음식,I212,비알코올 ,I21201,카페,I56221,커피 전문점,11,서울특별시,11215,광진구,11215780,능동,1121510200,능동,1.12151E+18,1,대지,243,1,서울특별시 광진구 능동 243-1,1.12154E+11,서울특별시 광진구 천호대로118길,40,,1.12151E+24,,서울특별시 광진구 천호대로118길 40,143849,4988,,1,,127.0845049,37.55300859
MA010120220806991297,위드미건대입구역점,,I2,음식,I212,비알코올 ,I21201,카페,I56221,커피 전문점,11,서울특별시,11215,광진구,11215710,화양동,1121510700,화양동,1.12151E+18,1,대지,7,3,서울특별시 광진구 화양동 7-3,1.12153E+11,서울특별시 광진구 아차산로,243,,1.12151E+24,2호선건대입구역,서울특별시 광진구 아차산로 243,143717,5017,,2,,127.0691565,37.54040904
MA010120220806984359,안방다방,,I2,음식,I212,비알코올 ,I21201,카페,I56221,커피 전문점,11,서울특별시,11260,중랑구,11260575,면목3.8동,1126010100,면목동,1.12601E+18,1,대지,1090,1,서울특별시 중랑구 면목동 1090-1,1.12604E+11,서울특별시 중랑구 면목로44길,56,,1.12601E+24,,서울특별시 중랑구 면목로44길 56,131832,2214,,1,,127.0916478,37.58085212
MA010120220806982869,카페와바,,I2,음식,I212,비알코올 ,I21201,카페,I56221,커피 전문점,11,서울특별시,11215,광진구,11215730,군자동,1121510900,군자동,1.12151E+18,1,대지,474,40,서울특별시 광진구 군자동 474-40,1.12153E+11,서울특별시 광진구 군자로,179,,1.12151E+24,,서울특별시 광진구 군자로 179,143838,4996,,1,,127.0778739,37.55659724
MA010120220806988087,프린스카페비어,,I2,음식,I212,비알코올 ,I21201,카페,I56221,커피 전문점,11,서울특별시,11260,중랑구,11260600,중화1동,1126010300,중화동,1.12601E+18,1,대지,287,10,서울특별시 중랑구 중화동 287-10,1.12603E+11,서울특별시 중랑구 봉화산로,54,,1.12601E+24,,서울특별시 중랑구 봉화산로 54,131876,2088,,1,,127.0803554,37.60147069
MA010120220807011650,커피홍당무,,I2,음식,I212,비알코올 ,I21201,카페,I56221,커피 전문점,11,서울특별시,11215,광진구,11215750,중곡2동,1121510100,중곡동,1.12151E+18,1,대지,56,16,서울특별시 광진구 중곡동 56-16,1.12154E+11,서울특별시 광진구 긴고랑로31길,5,,1.12151E+24,,서울특별시 광진구 긴고랑로31길 5,143886,4936,,1,,127.0870229,37.5599842
MA010120220806999501,르미르미,,I2,음식,I212,비알코올 ,I21201,카페,I56221,커피 전문점,11,서울특별시,11200,성동구,11200520,왕십리2동,1120010200,하왕십리동,1.12001E+18,1,대지,950,1,서울특별시 성동구 하왕십리동 950-1,1.12004E+11,서울특별시 성동구 무학봉15길,21,,1.12001E+24,무학초등학교,서울특별시 성동구 무학봉15길 21,133857,4710,,1,,127.0296514,37.56325694
MA010120220807028843,카페오라,,I2,음식,I212,비알코올 ,I21201,카페,I56221,커피 전문점,11,서울특별시,11200,성동구,11200660,성수1가2동,1120011400,성수동1가,1.12001E+18,1,대지,656,1122,서울특별시 성동구 성수동1가 656-1122,1.12004E+11,서울특별시 성동구 왕십리로14길,12,1,1.12001E+24,,서울특별시 성동구 왕십리로14길 12-1,133924,4789,,1,,127.0451144,37.54898428
MA010120220807054083,스윗오브유,,I2,음식,I212,비알코올 ,I21201,카페,I56221,커피 전문점,11,서울특별시,11230,동대문구,11230660,장안2동,1123010600,장안동,1.12301E+18,1,대지,335,10,서울특별시 동대문구 장안동 335-10,1.12303E+11,서울특별시 동대문구 답십리로,292,3,1.12301E+24,태솔아파트4차,서울특별시 동대문구 답십리로 292-3,130840,2637,,1,,127.072978,37.57173255
MA010120220807051217,공차,,I2,음식,I212,비알코올 ,I21201,카페,I56221,커피 전문점,11,서울특별시,11200,성동구,11200650,성수1가1동,1120011400,성수동1가,1.12001E+18,1,대지,661,2,서울특별시 성동구 성수동1가 661-2,1.12003E+11,서울특별시 성동구 왕십리로,94,2,1.12001E+24,,서울특별시 성동구 왕십리로 94-2,133821,4778,,1,,127.044902,37.54611723
MA010120220807048291,카페드립,,I2,음식,I212,비알코올 ,I21201,카페,I56221,커피 전문점,11,서울특별시,11230,동대문구,11230720,휘경1동,1123010900,휘경동,1.12301E+18,1,대지,146,66,서울특별시 동대문구 휘경동 146-66,1.12304E+11,서울특별시 동대문구 외대역동로4길,48,,1.12301E+24,,서울특별시 동대문구 외대역동로4길 48,130875,2435,,1,,127.0684561,37.59303371
MA010120220807079350,로꼬타코,,I2,음식,I212,비알코올 ,I21201,카페,I56221,커피 전문점,11,서울특별시,11215,광진구,11215840,자양3동,1121510500,자양동,1.12151E+18,1,대지,227,6,서울특별시 광진구 자양동 227-6,1.12153E+11,서울특별시 광진구 아차산로,290,,1.12151E+24,,서울특별시 광진구 아차산로 290,143854,5066,,1,,127.0750998,37.5383653
MA010120220807071205,해브어나이스데이,,I2,음식,I212,비알코올 ,I21201,카페,I56221,커피 전문점,11,서울특별시,11215,광진구,11215750,중곡2동,1121510100,중곡동,1.12151E+18,1,대지,157,20,서울특별시 광진구 중곡동 157-20,1.12154E+11,서울특별시 광진구 천호대로109길,7,,1.12151E+24,,서울특별시 광진구 천호대로109길 7,143898,4929,,1,,127.080809,37.55721482
MA010120220807069773,쥬씨건대,,I2,음식,I212,비알코올 ,I21201,카페,I56229,기타 비알코올 음료점업,11,서울특별시,11215,광진구,11215710,화양동,1121510700,화양동,1.12151E+18,1,대지,495,10,서울특별시 광진구 화양동 495-10,1.12154E+11,서울특별시 광진구 광나루로24길,8,,1.12151E+24,건국빌딩,서울특별시 광진구 광나루로24길 8,143926,5021,,1,,127.0761387,37.54587919
MA010120220807066281,더비즈랩세종대학교학술정보원점,,I2,음식,I212,비알코올 ,I21201,카페,I56221,커피 전문점,11,서울특별시,11215,광진구,11215730,군자동,1121510900,군자동,1.12151E+18,1,대지,98,,서울특별시 광진구 군자동 98,1.12153E+11,서울특별시 광진구 능동로,209,,1.12151E+24,세종대학교,서울특별시 광진구 능동로 209,143747,5006,,1,,127.0731707,37.55160464
MA010120220807072197,커피메소드,,I2,음식,I212,비알코올 ,I21201,카페,I56221,커피 전문점,11,서울특별시,11230,동대문구,11230710,회기동,1123010800,회기동,1.12301E+18,1,대지,25,,서울특별시 동대문구 회기동 25,1.12304E+11,서울특별시 동대문구 회기로21길,34,,1.12301E+24,,서울특별시 동대문구 회기로21길 34,130872,2453,,2,,127.0531143,37.59289361
MA010120220807099537,마니,,I2,음식,I212,비알코올 ,I21201,카페,I56221,커피 전문점,11,서울특별시,11230,동대문구,11230660,장안2동,1123010600,장안동,1.12301E+18,1,대지,483,,서울특별시 동대문구 장안동 483,1.12303E+11,서울특별시 동대문구 한천로,164,,1.12301E+24,,서울특별시 동대문구 한천로 164,130847,2529,,4,,127.0676443,37.57550197
MA010120220807096457,애스퍼,,I2,음식,I212,비알코올 ,I21201,카페,I56221,커피 전문점,11,서울특별시,11215,광진구,11215860,구의2동,1121510300,구의동,1.12151E+18,1,대지,61,33,서울특별시 광진구 구의동 61-33,1.12154E+11,서울특별시 광진구 자양로38길,43,,1.12151E+24,,서울특별시 광진구 자양로38길 43,143818,4979,,,,127.0903076,37.5467641
MA010120220807085926,스무디킹,,I2,음식,I212,비알코올 ,I21201,카페,I56229,기타 비알코올 음료점업,11,서울특별시,11200,성동구,11200690,성수2가3동,1120011500,성수동2가,1.12001E+18,1,대지,284,56,서울특별시 성동구 성수동2가 284-56,1.12004E+11,서울특별시 성동구 아차산로5길,7,,1.12001E+24,아주디지털타워,서울특별시 성동구 아차산로5길 7,133833,4793,,7,,127.0519339,37.54666947
MA010120220807090909,놀숲,,I2,음식,I212,비알코올 ,I21201,카페,I56229,기타 비알코올 음료점업,11,서울특별시,11260,중랑구,11260575,면목3.8동,1126010100,면목동,1.12601E+18,1,대지,50,49,서울특별시 중랑구 면목동 50-49,1.12603E+11,서울특별시 중랑구 용마산로,391,,1.12601E+24,,서울특별시 중랑구 용마산로 391,131812,2201,,2,,127.0950644,37.5866811
MA010120220807080871,티케,,I2,음식,I212,비알코올 ,I21201,카페,I56221,커피 전문점,11,서울특별시,11200,성동구,11200650,성수1가1동,1120011400,성수동1가,1.12001E+18,1,대지,656,630,서울특별시 성동구 성수동1가 656-630,1.12004E+11,서울특별시 성동구 왕십리로4길,12,,1.12001E+24,,서울특별시 성동구 왕십리로4길 12,133821,4778,,1,,127.0459578,37.54585545
MA010120220807111449,미드나잇선,,I2,음식,I212,비알코올 ,I21201,카페,I56229,기타 비알코올 음료점업,11,서울특별시,11260,중랑구,11260550,면목5동,1126010100,면목동,1.12601E+18,1,대지,158,1,서울특별시 중랑구 면목동 158-1,1.12604E+11,서울특별시 중랑구 사가정로37길,73,,1.12601E+24,,서울특별시 중랑구 사가정로37길 73,131821,2224,,1,,127.0818528,37.58467787
MA010120220807110599,카페구공,,I2,음식,I212,비알코올 ,I21201,카페,I56221,커피 전문점,11,서울특별시,11215,광진구,11215770,중곡4동,1121510100,중곡동,1.12151E+18,1,대지,114,1,서울특별시 광진구 중곡동 114-1,1.12154E+11,서울특별시 광진구 천호대로127길,24,,1.12151E+24,,서울특별시 광진구 천호대로127길 24,143889,4953,,1,,127.0901436,37.55373698
MA010120220807106312,에피소드성수101,,I2,음식,I212,비알코올 ,I21201,카페,I56221,커피 전문점,11,서울특별시,11200,성동구,11200650,성수1가1동,1120011400,성수동1가,1.12001E+18,1,대지,72,114,서울특별시 성동구 성수동1가 72-114,1.12003E+11,서울특별시 성동구 뚝섬로,341,,1.12001E+24,한스포레,서울특별시 성동구 뚝섬로 341,133819,4780,,,,127.0487388,37.54073289
MA010120220807101012,달러커피,,I2,음식,I212,비알코올 ,I21201,카페,I56221,커피 전문점,11,서울특별시,11200,성동구,11200690,성수2가3동,1120011500,성수동2가,1.12001E+18,1,대지,277,76,서울특별시 성동구 성수동2가 277-76,1.12003E+11,서울특별시 성동구 성수이로,126,,1.12001E+24,성수실업,서울특별시 성동구 성수이로 126,133832,4797,,1,,127.0577465,37.54610329
MA010120220807126946,엠씨에프엠인터내셔날,,I2,음식,I212,비알코올 ,I21201,카페,I56221,커피 전문점,11,서울특별시,11230,동대문구,11230536,용신동,1123010100,신설동,1.12301E+18,1,대지,89,20,서울특별시 동대문구 신설동 89-20,1.12303E+11,서울특별시 동대문구 왕산로,21,,1.12301E+24,민족통일대통령빌딩,서울특별시 동대문구 왕산로 21,130810,2580,,2,,127.0257737,37.57679474
MA010120220807141273,노란코끼리,,I2,음식,I212,비알코올 ,I21201,카페,I56221,커피 전문점,11,서울특별시,11260,중랑구,11260620,묵1동,1126010400,묵동,1.12601E+18,1,대지,162,8,서울특별시 중랑구 묵동 162-8,1.12603E+11,서울특별시 중랑구 공릉로,59,,1.12601E+24,태능원룸텔,서울특별시 중랑구 공릉로 59,131848,2032,,1,,127.0790778,37.61599454
MA010120220807163063,미뇽,,I2,음식,I212,비알코올 ,I21201,카페,I56229,기타 비알코올 음료점업,11,서울특별시,11230,동대문구,11230545,제기동,1123010300,제기동,1.12301E+18,1,대지,142,16,서울특별시 동대문구 제기동 142-16,1.12304E+11,서울특별시 동대문구 제기로2길,4,,1.12301E+24,,서울특별시 동대문구 제기로2길 4,130860,2474,,2,,127.0330345,37.58612617
MA010120220807149723,모서리,,I2,음식,I212,비알코올 ,I21201,카페,I56221,커피 전문점,11,서울특별시,11230,동대문구,11230740,이문1동,1123011000,이문동,1.12301E+18,1,대지,341,18,서울특별시 동대문구 이문동 341-18,1.12303E+11,서울특별시 동대문구 이문로,45,,1.12301E+24,,서울특별시 동대문구 이문로 45,130831,2452,,1,,127.056687,37.59154362
MA010120220807149010,카페에이딥,,I2,음식,I212,비알코올 ,I21201,카페,I56221,커피 전문점,11,서울특별시,11215,광진구,11215770,중곡4동,1121510100,중곡동,1.12151E+18,1,대지,115,16,서울특별시 광진구 중곡동 115-16,1.12154E+11,서울특별시 광진구 자양로43길,57,,1.12151E+24,,서울특별시 광진구 자양로43길 57,143889,4953,,1,,127.089902,37.55313141
MA010120220807169989,너에게로또,,I2,음식,I212,비알코올 ,I21201,카페,I56221,커피 전문점,11,서울특별시,11260,중랑구,11260600,중화1동,1126010300,중화동,1.12601E+18,1,대지,288,14,서울특별시 중랑구 중화동 288-14,1.12604E+11,서울특별시 중랑구 동일로130길,21,,1.12601E+24,풍성한교회,서울특별시 중랑구 동일로130길 21,131877,2088,,1,,127.0812134,37.59984649
MA010120220807166393,도피오커피건국대학교,,I2,음식,I212,비알코올 ,I21201,카페,I56221,커피 전문점,11,서울특별시,11215,광진구,11215710,화양동,1121510700,화양동,1.12151E+18,1,대지,1,,서울특별시 광진구 화양동 1,1.12153E+11,서울특별시 광진구 능동로,120,,1.12151E+24,건국대학교,서울특별시 광진구 능동로 120,143729,5029,,5,,127.0746953,37.53905594
MA010120220807164424,커피청,,I2,음식,I212,비알코올 ,I21201,카페,I56221,커피 전문점,11,서울특별시,11200,성동구,11200550,사근동,1120010700,행당동,1.12001E+18,1,대지,1,112,서울특별시 성동구 행당동 1-112,1.12004E+11,서울특별시 성동구 마조로11길,10,,1.12001E+24,행당주택,서울특별시 성동구 마조로11길 10,133817,4759,,1,,127.0403768,37.56189393
MA010120220807204853,카페다올,,I2,음식,I212,비알코올 ,I21201,카페,I56221,커피 전문점,11,서울특별시,11200,성동구,11200790,용답동,1120012200,용답동,1.12001E+18,1,대지,26,4,서울특별시 성동구 용답동 26-4,1.12004E+11,서울특별시 성동구 용답23길,16,1,1.12001E+24,,서울특별시 성동구 용답23길 16-1,133847,4805,,1,,127.0537085,37.5620556
MA010120220807203020,민티베리,,I2,음식,I212,비알코올 ,I21201,카페,I56221,커피 전문점,11,서울특별시,11200,성동구,11200650,성수1가1동,1120011400,성수동1가,1.12001E+18,1,대지,656,108,서울특별시 성동구 성수동1가 656-108,1.12004E+11,서울특별시 성동구 성수일로3길,3,16,1.12001E+24,,서울특별시 성동구 성수일로3길 3-16,133821,4779,,,,127.0481265,37.54172812
MA010120220807202968,이디야중화역점,,I2,음식,I212,비알코올 ,I21201,카페,I56221,커피 전문점,11,서울특별시,11260,중랑구,11260610,중화2동,1126010300,중화동,1.12601E+18,1,대지,305,72,서울특별시 중랑구 중화동 305-72,1.12603E+11,서울특별시 중랑구 동일로,815,,1.12601E+24,,서울특별시 중랑구 동일로 815,131881,2017,,,,127.078874,37.60312607
MA010120220807215107,다피dappy,,I2,음식,I212,비알코올 ,I21201,카페,I56221,커피 전문점,11,서울특별시,11230,동대문구,11230660,장안2동,1123010600,장안동,1.12301E+18,1,대지,340,3,서울특별시 동대문구 장안동 340-3,1.12304E+11,서울특별시 동대문구 장한로22길,32,,1.12301E+24,,서울특별시 동대문구 장한로22길 32,130840,2639,,1,,127.0719469,37.56906636
MA010120220807205303,커피소소,,I2,음식,I212,비알코올 ,I21201,카페,I56221,커피 전문점,11,서울특별시,11260,중랑구,11260540,면목4동,1126010100,면목동,1.12601E+18,1,대지,375,6,서울특별시 중랑구 면목동 375-6,1.12604E+11,서울특별시 중랑구 면목로27나길,11,,1.12601E+24,뜨라네14차,서울특별시 중랑구 면목로27나길 11,131830,2243,,1,,127.0826129,37.5753219
MA010120220807274370,커피브라더,,I2,음식,I212,비알코올 ,I21201,카페,I56221,커피 전문점,11,서울특별시,11215,광진구,11215710,화양동,1121510700,화양동,1.12151E+18,1,대지,495,23,서울특별시 광진구 화양동 495-23,1.12154E+11,서울특별시 광진구 능동로16길,57,,1.12151E+24,,서울특별시 광진구 능동로16길 57,143926,5021,,1,,127.0761223,37.54537447
MA010120220807292941,4레스트,,I2,음식,I212,비알코올 ,I21201,카페,I56221,커피 전문점,11,서울특별시,11230,동대문구,11230660,장안2동,1123010600,장안동,1.12301E+18,1,대지,324,11,서울특별시 동대문구 장안동 324-11,1.12304E+11,서울특별시 동대문구 답십리로69길,45,,1.12301E+24,,서울특별시 동대문구 답십리로69길 45,130839,2523,,1,,127.0738511,37.57436145
MA010120220807334116,테이블스워커힐,,I2,음식,I212,비알코올 ,I21201,카페,I56221,커피 전문점,11,서울특별시,11215,광진구,11215810,광장동,1121510400,광장동,1.12151E+18,1,대지,331,3,서울특별시 광진구 광장동 331-3,1.12153E+11,서울특별시 광진구 아차산로,613,,1.12151E+24,,서울특별시 광진구 아차산로 613,143809,4968,,1,,127.1064778,37.54782467
MA010120220807363311,카페104,,I2,음식,I212,비알코올 ,I21201,카페,I56221,커피 전문점,11,서울특별시,11230,동대문구,11230536,용신동,1123010100,신설동,1.12301E+18,1,대지,104,7,서울특별시 동대문구 신설동 104-7,1.12304E+11,서울특별시 동대문구 천호대로2길,23,3,1.12301E+24,,서울특별시 동대문구 천호대로2길 23-3,130812,2586,,1,,127.0242354,37.57408791
MA010120220807387264,티아트커피로스터스,,I2,음식,I212,비알코올 ,I21201,카페,I56221,커피 전문점,11,서울특별시,11230,동대문구,11230610,답십리2동,1123010500,답십리동,1.12301E+18,1,대지,4,16,서울특별시 동대문구 답십리동 4-16,1.12304E+11,서울특별시 동대문구 답십리로60길,107,,1.12301E+24,,서울특별시 동대문구 답십리로60길 107,130800,2611,,1,,127.0625933,37.5684248
MA010120220807370070,카페베네,,I2,음식,I212,비알코올 ,I21201,카페,I56219,기타 주점업,11,서울특별시,11230,동대문구,11230560,전농1동,1123010400,전농동,1.12301E+18,1,대지,591,1,서울특별시 동대문구 전농동 591-1,1.12303E+11,서울특별시 동대문구 왕산로,224,,1.12301E+24,,서울특별시 동대문구 왕산로 224,130851,2554,,1,,127.047494,37.58163941
MA010120220807404744,빌로우,,I2,음식,I212,비알코올 ,I21201,카페,I56221,커피 전문점,11,서울특별시,11200,성동구,11200660,성수1가2동,1120011400,성수동1가,1.12001E+18,1,대지,668,90,서울특별시 성동구 성수동1가 668-90,1.12004E+11,서울특별시 성동구 서울숲4길,16,10,1.12001E+24,,서울특별시 성동구 서울숲4길 16-10,133824,4768,,지,,127.0423868,37.54723218
MA010120220807399153,카페류,,I2,음식,I212,비알코올 ,I21201,카페,I56221,커피 전문점,11,서울특별시,11260,중랑구,11260680,신내1동,1126010600,신내동,1.12601E+18,1,대지,786,,서울특별시 중랑구 신내동 786,1.12603E+11,서울특별시 중랑구 봉화산로,221,,1.12601E+24,동성타워프라자,서울특별시 중랑구 봉화산로 221,131867,2054,,1,,127.0971845,37.60801606
MA010120220807394555,첼로커피호프,,I2,음식,I212,비알코올 ,I21201,카페,I56229,기타 비알코올 음료점업,11,서울특별시,11260,중랑구,11260610,중화2동,1126010300,중화동,1.12601E+18,1,대지,307,58,서울특별시 중랑구 중화동 307-58,1.12603E+11,서울특별시 중랑구 중랑역로,116,,1.12601E+24,,서울특별시 중랑구 중랑역로 116,131881,2014,,2,,127.077507,37.60377315
MA010120220807411646,커피베이,,I2,음식,I212,비알코올 ,I21201,카페,I56221,커피 전문점,11,서울특별시,11215,광진구,11215850,구의1동,1121510300,구의동,1.12151E+18,1,대지,254,36,서울특별시 광진구 구의동 254-36,1.12153E+11,서울특별시 광진구 자양로,163,,1.12151E+24,우남빌딩,서울특별시 광진구 자양로 163,143827,5024,,1,,127.0837767,37.54223538
MA010120220807411895,올리브커피,,I2,음식,I212,비알코올 ,I21201,카페,I56221,커피 전문점,11,서울특별시,11260,중랑구,11260590,상봉2동,1126010200,상봉동,1.12601E+18,1,대지,87,27,서울특별시 중랑구 상봉동 87-27,1.12603E+11,서울특별시 중랑구 봉우재로,155,,1.12601E+24,센트럴파크55,서울특별시 중랑구 봉우재로 155,131859,2153,,1,,127.0899851,37.59374229
MA010120220807413683,바리스타나눔,,I2,음식,I212,비알코올 ,I21201,카페,I56221,커피 전문점,11,서울특별시,11215,광진구,11215750,중곡2동,1121510100,중곡동,1.12151E+18,1,대지,119,19,서울특별시 광진구 중곡동 119-19,1.12154E+11,서울특별시 광진구 천호대로125길,5,,1.12151E+24,영진빌딩,서울특별시 광진구 천호대로125길 5,143890,4931,,,,127.0872217,37.55482272
MA010120220807437653,똥강아지,,I2,음식,I212,비알코올 ,I21201,카페,I56221,커피 전문점,11,서울특별시,11260,중랑구,11260540,면목4동,1126010100,면목동,1.12601E+18,1,대지,1502,2,서울특별시 중랑구 면목동 1502-2,1.12603E+11,서울특별시 중랑구 용마산로,248,,1.12601E+24,,서울특별시 중랑구 용마산로 248,131204,2257,,,,127.0884674,37.57519606
MA010120220807438617,이디야,,I2,음식,I212,비알코올 ,I21201,카페,I56221,커피 전문점,11,서울특별시,11260,중랑구,11260620,묵1동,1126010400,묵동,1.12601E+18,1,대지,2,,서울특별시 중랑구 묵동 2,1.12604E+11,서울특별시 중랑구 신내로25가길,2,,1.12601E+24,현동학당,서울특별시 중랑구 신내로25가길 2,131846,2021,,,,127.0841777,37.61946719
MA010120220807436167,케이티포파이브,,I2,음식,I212,비알코올 ,I21201,카페,I56221,커피 전문점,11,서울특별시,11215,광진구,11215847,자양4동,1121510500,자양동,1.12151E+18,1,대지,553,12,서울특별시 광진구 자양동 553-12,1.12154E+11,서울특별시 광진구 뚝섬로23길,44,,1.12151E+24,,서울특별시 광진구 뚝섬로23길 44,143862,5078,,,,127.0657453,37.53719238
MA010120220807441663,이디야,,I2,음식,I212,비알코올 ,I21201,카페,I56221,커피 전문점,11,서울특별시,11200,성동구,11200560,행당1동,1120010700,행당동,1.12001E+18,1,대지,287,15,서울특별시 성동구 행당동 287-15,1.12003E+11,서울특별시 성동구 왕십리로,309,,1.12001E+24,왕십리역이스타빌,서울특별시 성동구 왕십리로 309,133867,4715,,1,,127.0347018,37.56134308
MA010120220807497238,메가고대,,I2,음식,I212,비알코올 ,I21201,카페,I56221,커피 전문점,11,서울특별시,11230,동대문구,11230545,제기동,1123010300,제기동,1.12301E+18,1,대지,137,20,서울특별시 동대문구 제기동 137-20,1.12303E+11,서울특별시 동대문구 안암로,158,1,1.12301E+24,,서울특별시 동대문구 안암로 158-1,130860,2473,,1,,127.0353569,37.58865908
MA010120220807494619,빽다방청량리역점,,I2,음식,I212,비알코올 ,I21201,카페,I56221,커피 전문점,11,서울특별시,11230,동대문구,11230705,청량리동,1123010700,청량리동,1.12301E+18,1,대지,260,,서울특별시 동대문구 청량리동 260,1.12303E+11,서울특별시 동대문구 왕산로,209,,1.12301E+24,,서울특별시 동대문구 왕산로 209,130867,2490,,1,,127.0458496,37.58096836
MA010120220807488088,씨위드커피,,I2,음식,I212,비알코올 ,I21201,카페,I56221,커피 전문점,11,서울특별시,11230,동대문구,11230740,이문1동,1123011000,이문동,1.12301E+18,1,대지,341,60,서울특별시 동대문구 이문동 341-60,1.12304E+11,서울특별시 동대문구 회기로25길,59,,1.12301E+24,,서울특별시 동대문구 회기로25길 59,130831,2452,,1,,127.0567327,37.59240898
MA010120220807571740,커피온리건대,,I2,음식,I212,비알코올 ,I21201,카페,I56221,커피 전문점,11,서울특별시,11215,광진구,11215710,화양동,1121510700,화양동,1.12151E+18,1,대지,3,28,서울특별시 광진구 화양동 3-28,1.12153E+11,서울특별시 광진구 능동로,137,,1.12151E+24,,서울특별시 광진구 능동로 137,143914,5011,,1,,127.0717937,37.54309691
MA010120220807566609,빽다방,,I2,음식,I212,비알코올 ,I21201,카페,I56221,커피 전문점,11,서울특별시,11230,동대문구,11230660,장안2동,1123010600,장안동,1.12301E+18,1,대지,308,1,서울특별시 동대문구 장안동 308-1,1.12303E+11,서울특별시 동대문구 장한로,140,,1.12301E+24,,서울특별시 동대문구 장한로 140,130839,2523,,,,127.0721378,37.57284325
MA010120220807665232,메종드그릭,,I2,음식,I212,비알코올 ,I21201,카페,I56229,기타 비알코올 음료점업,11,서울특별시,11260,중랑구,11260655,망우본동,1126010500,망우동,1.12601E+18,1,대지,506,15,서울특별시 중랑구 망우동 506-15,1.12604E+11,서울특별시 중랑구 상봉로26길,5,,1.12601E+24,,서울특별시 중랑구 상봉로26길 5,131809,2169,,지,,127.0934175,37.59550772
MA010120220807732038,따시하루,,I2,음식,I212,비알코올 ,I21201,카페,I56221,커피 전문점,11,서울특별시,11215,광진구,11215870,구의3동,1121510300,구의동,1.12151E+18,1,대지,667,,서울특별시 광진구 구의동 667,1.12153E+11,서울특별시 광진구 아차산로,431,,1.12151E+24,강변에스케이뷰,서울특별시 광진구 아차산로 431,143203,5045,,지,,127.0901686,37.53864455
MA010120220807721792,카페베네앤세계의맥주,,I2,음식,I212,비알코올 ,I21201,카페,I56219,기타 주점업,11,서울특별시,11230,동대문구,11230560,전농1동,1123010400,전농동,1.12301E+18,1,대지,591,1,서울특별시 동대문구 전농동 591-1,1.12303E+11,서울특별시 동대문구 왕산로,224,,1.12301E+24,,서울특별시 동대문구 왕산로 224,130851,2554,,2,,127.047494,37.58163941
MA010120220807716857,아마스빈사가정역점,,I2,음식,I212,비알코올 ,I21201,카페,I56221,커피 전문점,11,서울특별시,11260,중랑구,11260575,면목3.8동,1126010100,면목동,1.12601E+18,1,대지,473,15,서울특별시 중랑구 면목동 473-15,1.12603E+11,서울특별시 중랑구 면목로,326,,1.12601E+24,,서울특별시 중랑구 면목로 326,131813,2214,,1,,127.0886227,37.58103604
MA010120220807755149,분더바,,I2,음식,I212,비알코올 ,I21201,카페,I56221,커피 전문점,11,서울특별시,11230,동대문구,11230536,용신동,1123010200,용두동,1.12301E+18,1,대지,233,21,서울특별시 동대문구 용두동 233-21,1.12304E+11,서울특별시 동대문구 왕산로9길,24,,1.12301E+24,,서울특별시 동대문구 왕산로9길 24,130823,2579,,1,,127.0278155,37.57823522
MA010120220807771181,상봉역맞이방후식,,I2,음식,I212,비알코올 ,I21201,카페,I56221,커피 전문점,11,서울특별시,11260,중랑구,11260580,상봉1동,1126010200,상봉동,1.12601E+18,1,대지,100,9,서울특별시 중랑구 상봉동 100-9,1.12603E+11,서울특별시 중랑구 망우로,297,,1.12601E+24,상봉역,서울특별시 중랑구 망우로 297,131857,2098,,,,127.085623,37.59671807
MA010120220807759206,앤티앤스,,I2,음식,I212,비알코올 ,I21201,카페,I56221,커피 전문점,11,서울특별시,11230,동대문구,11230536,용신동,1123010200,용두동,1.12301E+18,1,대지,33,1,서울특별시 동대문구 용두동 33-1,1.12302E+11,서울특별시 동대문구 천호대로,133,,1.12301E+24,홈플러스동대문점,서울특별시 동대문구 천호대로 133,130817,2565,,1,,127.0387542,37.57454041
MA010120220807787274,폴인레미유,,I2,음식,I212,비알코올 ,I21201,카페,I56221,커피 전문점,11,서울특별시,11200,성동구,11200660,성수1가2동,1120011400,성수동1가,1.12001E+18,1,대지,656,1004,서울특별시 성동구 성수동1가 656-1004,1.12004E+11,서울특별시 성동구 왕십리로14길,34,8,1.12001E+24,,서울특별시 성동구 왕십리로14길 34-8,133924,4789,,,,127.0475674,37.54831029
MA010120220807782724,몬스터만화카페,,I2,음식,I212,비알코올 ,I21201,카페,I56229,기타 비알코올 음료점업,11,서울특별시,11200,성동구,11200790,용답동,1120012200,용답동,1.12001E+18,1,대지,1,2,서울특별시 성동구 용답동 1-2,1.12002E+11,서울특별시 성동구 천호대로,312,,1.12001E+24,,서울특별시 성동구 천호대로 312,133847,4805,,3,,127.0545432,37.56497267
MA010120220807821518,커피이야기,,I2,음식,I212,비알코올 ,I21201,카페,I56221,커피 전문점,11,서울특별시,11230,동대문구,11230610,답십리2동,1123010500,답십리동,1.12301E+18,1,대지,1,98,서울특별시 동대문구 답십리동 1-98,1.12304E+11,서울특별시 동대문구 한천로33길,23,,1.12301E+24,,서울특별시 동대문구 한천로33길 23,130800,2535,,1,,127.0668502,37.57654091
MA010120220807797971,벨렘351,,I2,음식,I212,비알코올 ,I21201,카페,I56221,커피 전문점,11,서울특별시,11215,광진구,11215710,화양동,1121510700,화양동,1.12151E+18,1,대지,5,43,서울특별시 광진구 화양동 5-43,1.12153E+11,서울특별시 광진구 능동로,119,,1.12151E+24,,서울특별시 광진구 능동로 119,143914,5017,,1,,127.0711993,37.54174967
MA010120220807983639,안다미로,,I2,음식,I212,비알코올 ,I21201,카페,I56221,커피 전문점,11,서울특별시,11215,광진구,11215710,화양동,1121510700,화양동,1.12151E+18,1,대지,48,23,서울특별시 광진구 화양동 48-23,1.12154E+11,서울특별시 광진구 아차산로25길,8,,1.12151E+24,,서울특별시 광진구 아차산로25길 8,143917,5019,,2,,127.0667291,37.54178651
MA010120220807983912,펠어커피,,I2,음식,I212,비알코올 ,I21201,카페,I56221,커피 전문점,11,서울특별시,11215,광진구,11215870,구의3동,1121510300,구의동,1.12151E+18,1,대지,223,23,서울특별시 광진구 구의동 223-23,1.12154E+11,서울특별시 광진구 아차산로59길,63,,1.12151E+24,,서울특별시 광진구 아차산로59길 63,143959,5036,,1,,127.0907934,37.54123538
MA010120220807984092,더카페/서울숲SKV1,,I2,음식,I212,비알코올 ,I21201,카페,I56221,커피 전문점,11,서울특별시,11200,성동구,11200690,성수2가3동,1120011500,성수동2가,1.12001E+18,1,대지,284,55,서울특별시 성동구 성수동2가 284-55,1.12004E+11,서울특별시 성동구 성수일로8길,5,,1.12001E+24,서울숲SKV1TOWER,서울특별시 성동구 성수일로8길 5,133833,4793,,1,,127.0516007,37.54706326
MA010120220807980608,비엔에이치알커피,,I2,음식,I212,비알코올 ,I21201,카페,I56221,커피 전문점,11,서울특별시,11200,성동구,11200690,성수2가3동,1120011500,성수동2가,1.12001E+18,1,대지,302,8,서울특별시 성동구 성수동2가 302-8,1.12004E+11,서울특별시 성동구 연무장5길,9,16,1.12001E+24,블루스톤타워,서울특별시 성동구 연무장5길 9-16,133835,4782,,1,,127.0526412,37.54443154
MA010120220807990325,신도씨엔디,,I2,음식,I212,비알코올 ,I21201,카페,I56221,커피 전문점,11,서울특별시,11230,동대문구,11230750,이문2동,1123011000,이문동,1.12301E+18,1,대지,64,,서울특별시 동대문구 이문동 64,1.12304E+11,서울특별시 동대문구 한천로58길,47,,1.12301E+24,쌍용아파트,서울특별시 동대문구 한천로58길 47,130765,2423,,,,127.0687564,37.60074
MA010120220807996553,카페드노보,,I2,음식,I212,비알코올 ,I21201,카페,I56221,커피 전문점,11,서울특별시,11230,동대문구,11230660,장안2동,1123010600,장안동,1.12301E+18,1,대지,103,1,서울특별시 동대문구 장안동 103-1,1.12303E+11,서울특별시 동대문구 사가정로,222,,1.12301E+24,,서울특별시 동대문구 사가정로 222,130835,2525,,1,,127.069633,37.57853617
MA010120220807929010,카페숲,,I2,음식,I212,비알코올 ,I21201,카페,I56221,커피 전문점,11,서울특별시,11230,동대문구,11230545,제기동,1123010300,제기동,1.12301E+18,1,대지,1019,,서울특별시 동대문구 제기동 1019,1.12304E+11,서울특별시 동대문구 고산자로36길,3,,1.12301E+24,경동시장,서울특별시 동대문구 고산자로36길 3,130865,2571,,2,,127.0391266,37.57903065
MA010120220807935931,매머드익스프레스자양,,I2,음식,I212,비알코올 ,I21201,카페,I56221,커피 전문점,11,서울특별시,11215,광진구,11215820,자양1동,1121510500,자양동,1.12151E+18,1,대지,612,62,서울특별시 광진구 자양동 612-62,1.12154E+11,서울특별시 광진구 자양로15길,6,,1.12151E+24,,서울특별시 광진구 자양로15길 6,143866,5055,,1,,127.0831621,37.53604939
MA010120220807936340,메가엠지씨커피양원지구점,,I2,음식,I212,비알코올 ,I21201,카페,I56221,커피 전문점,11,서울특별시,11260,중랑구,11260655,망우본동,1126010500,망우동,1.12601E+18,1,대지,598,,서울특별시 중랑구 망우동 598,1.12603E+11,서울특별시 중랑구 봉화산로,301,,1.12601E+24,신내역힐데스하임참좋은아파트,서울특별시 중랑구 봉화산로 301,131231,2057,,1,,127.1049753,37.61002166
MA010120220807941883,메가엠지씨커피성수일로점,,I2,음식,I212,비알코올 ,I21201,카페,I56221,커피 전문점,11,서울특별시,11200,성동구,11200650,성수1가1동,1120011400,성수동1가,1.12001E+18,1,대지,22,5,서울특별시 성동구 성수동1가 22-5,1.12003E+11,서울특별시 성동구 성수일로,39,,1.12001E+24,경동빌딩,서울특별시 성동구 성수일로 39,133819,4779,,1,,127.0492375,37.54423298
MA010120220807882116,올림픽북단점빽다방,,I2,음식,I212,비알코올 ,I21201,카페,I56221,커피 전문점,11,서울특별시,11215,광진구,11215870,구의3동,1121510300,구의동,1.12151E+18,1,대지,199,8,서울특별시 광진구 구의동 199-8,1.12153E+11,서울특별시 광진구 아차산로,480,,1.12151E+24,,서울특별시 광진구 아차산로 480,143821,5117,,1,,127.0952274,37.54044948
MA010120220807879190,버글러,,I2,음식,I212,비알코올 ,I21201,카페,I56221,커피 전문점,11,서울특별시,11215,광진구,11215770,중곡4동,1121510100,중곡동,1.12151E+18,1,대지,109,26,서울특별시 광진구 중곡동 109-26,1.12154E+11,서울특별시 광진구 천호대로127길,74,,1.12151E+24,지윤맨션,서울특별시 광진구 천호대로127길 74,143889,4951,,1,,127.0921384,37.55536521
MA010120220807879488,디오리진,,I2,음식,I212,비알코올 ,I21201,카페,I56221,커피 전문점,11,서울특별시,11260,중랑구,11260590,상봉2동,1126010200,상봉동,1.12601E+18,1,대지,129,11,서울특별시 중랑구 상봉동 129-11,1.12604E+11,서울특별시 중랑구 망우로32길,7,,1.12601E+24,성원빌딩,서울특별시 중랑구 망우로32길 7,131861,2121,,1,,127.0765576,37.59353888
MA010120220807889496,까페라임,,I2,음식,I212,비알코올 ,I21201,카페,I56221,커피 전문점,11,서울특별시,11215,광진구,11215847,자양4동,1121510500,자양동,1.12151E+18,1,대지,851,18,서울특별시 광진구 자양동 851-18,1.12154E+11,서울특별시 광진구 능동로7길,46,,1.12151E+24,,서울특별시 광진구 능동로7길 46,143842,5075,,1,,127.0665541,37.53766732
MA010120220807890391,룸메이트,,I2,음식,I212,비알코올 ,I21201,카페,I56221,커피 전문점,11,서울특별시,11215,광진구,11215710,화양동,1121510700,화양동,1.12151E+18,1,대지,3,22,서울특별시 광진구 화양동 3-22,1.12153E+11,서울특별시 광진구 능동로,141,,1.12151E+24,,서울특별시 광진구 능동로 141,143914,5011,,4,,127.0719708,37.54341367
MA010120220807828602,파스텔,,I2,음식,I212,비알코올 ,I21201,카페,I56221,커피 전문점,11,서울특별시,11260,중랑구,11260630,묵2동,1126010400,묵동,1.12601E+18,1,대지,248,27,서울특별시 중랑구 묵동 248-27,1.12604E+11,서울특별시 중랑구 동일로143길,70,,1.12601E+24,,서울특별시 중랑구 동일로143길 70,131853,2012,,1,,127.0747291,37.60494979
MA010120220808023699,달꿈남매,,I2,음식,I212,비알코올 ,I21201,카페,I56221,커피 전문점,11,서울특별시,11260,중랑구,11260565,면목본동,1126010100,면목동,1.12601E+18,1,대지,118,1,서울특별시 중랑구 면목동 118-1,1.12603E+11,서울특별시 중랑구 겸재로,164,,1.12601E+24,,서울특별시 중랑구 겸재로 164,131818,2218,,1,,127.0859133,37.58779997
MA010120220808021088,커피나무카페,,I2,음식,I212,비알코올 ,I21201,카페,I56221,커피 전문점,11,서울특별시,11260,중랑구,11260660,망우3동,1126010500,망우동,1.12601E+18,1,대지,531,35,서울특별시 중랑구 망우동 531-35,1.12603E+11,서울특별시 중랑구 겸재로,263,,1.12601E+24,심정마트,서울특별시 중랑구 겸재로 263,131807,2175,,1,,127.0967601,37.59065869
MA010120220808027906,킹프레소,,I2,음식,I212,비알코올 ,I21201,카페,I56221,커피 전문점,11,서울특별시,11260,중랑구,11260565,면목본동,1126010100,면목동,1.12601E+18,1,대지,502,1,서울특별시 중랑구 면목동 502-1,1.12603E+11,서울특별시 중랑구 면목로,375,,1.12601E+24,,서울특별시 중랑구 면목로 375,131818,2220,,,,127.0881718,37.58551076
MA010120220808127253,붕어앤호두커피,,I2,음식,I212,비알코올 ,I21201,카페,I56221,커피 전문점,11,서울특별시,11215,광진구,11215860,구의2동,1121510300,구의동,1.12151E+18,1,대지,47,7,서울특별시 광진구 구의동 47-7,1.12154E+11,서울특별시 광진구 자양로48길,6,,1.12151E+24,,서울특별시 광진구 자양로48길 6,143817,4961,,1,,127.0924454,37.55151108
MA010120220808076329,해머스미스커피,,I2,음식,I212,비알코올 ,I21201,카페,I56221,커피 전문점,11,서울특별시,11230,동대문구,11230560,전농1동,1123010400,전농동,1.12301E+18,1,대지,150,4,서울특별시 동대문구 전농동 150-4,1.12303E+11,서울특별시 동대문구 서울시립대로,155,,1.12301E+24,,서울특별시 동대문구 서울시립대로 155,130021,2492,,1,,127.0540326,37.5838635
MA010120220808068589,카페문,,I2,음식,I212,비알코올 ,I21201,카페,I56221,커피 전문점,11,서울특별시,11200,성동구,11200590,금호1가동,1120010900,금호동1가,1.12001E+18,1,대지,132,13,서울특별시 성동구 금호동1가 132-13,1.12004E+11,서울특별시 성동구 행당로1길,21,10,1.12001E+24,,서울특별시 성동구 행당로1길 21-10,133800,4721,,,,127.0243385,37.55750954
MA010120220808069712,상왕제약,,I2,음식,I212,비알코올 ,I21201,카페,I56221,커피 전문점,11,서울특별시,11200,성동구,11200520,왕십리2동,1120010200,하왕십리동,1.12001E+18,1,대지,889,1,서울특별시 성동구 하왕십리동 889-1,1.12004E+11,서울특별시 성동구 왕십리로33길,8,,1.12001E+24,,서울특별시 성동구 왕십리로33길 8,133857,4710,,1,,127.0270689,37.56426288
MA010120220808102276,써드웨이브커피,,I2,음식,I212,비알코올 ,I21201,카페,I56221,커피 전문점,11,서울특별시,11200,성동구,11200590,금호1가동,1120010900,금호동1가,1.12001E+18,1,대지,1764,2,서울특별시 성동구 금호동1가 1764-2,1.12003E+11,서울특별시 성동구 금호로,82,,1.12001E+24,,서울특별시 성동구 금호로 82,133801,4718,,1,,127.0259219,37.55063862
MA010120220808102280,카페떼오자양,,I2,음식,I212,비알코올 ,I21201,카페,I56221,커피 전문점,11,서울특별시,11215,광진구,11215847,자양4동,1121510500,자양동,1.12151E+18,1,대지,180,4,서울특별시 광진구 자양동 180-4,1.12154E+11,서울특별시 광진구 뚝섬로22길,66,,1.12151E+24,,서울특별시 광진구 뚝섬로22길 66,143846,5088,,,,127.0612815,37.53403033
MA010120220808079683,카페인중독,,I2,음식,I212,비알코올 ,I21201,카페,I56221,커피 전문점,11,서울특별시,11260,중랑구,11260590,상봉2동,1126010200,상봉동,1.12601E+18,1,대지,127,45,서울특별시 중랑구 상봉동 127-45,1.12604E+11,서울특별시 중랑구 동일로109길,8,,1.12601E+24,,서울특별시 중랑구 동일로109길 8,131861,2123,,1,,127.0795975,37.59220205
MA010120220808051946,에이더블유오,,I2,음식,I212,비알코올 ,I21201,카페,I56221,커피 전문점,11,서울특별시,11200,성동구,11200670,성수2가1동,1120011500,성수동2가,1.12001E+18,1,대지,310,60,서울특별시 성동구 성수동2가 310-60,1.12004E+11,서울특별시 성동구 연무장길,28,16,1.12001E+24,,서울특별시 성동구 연무장길 28-16,133827,4781,,1,,127.0522183,37.54297745
MA010120220808060837,그굴,,I2,음식,I212,비알코올 ,I21201,카페,I56221,커피 전문점,11,서울특별시,11200,성동구,11200550,사근동,1120010700,행당동,1.12001E+18,1,대지,158,16,서울특별시 성동구 행당동 158-16,1.12004E+11,서울특별시 성동구 마조로3길,9,,1.12001E+24,,서울특별시 성동구 마조로3길 9,133817,4760,,1,,127.0394348,37.5585614
MA010120220808052437,아이컴퍼니,,I2,음식,I212,비알코올 ,I21201,카페,I56221,커피 전문점,11,서울특별시,11215,광진구,11215740,중곡1동,1121510100,중곡동,1.12151E+18,1,대지,649,18,서울특별시 광진구 중곡동 649-18,1.12154E+11,서울특별시 광진구 능동로37길,17,1,1.12151E+24,,서울특별시 광진구 능동로37길 17-1,143912,4919,,1,,127.0787711,37.55818108
MA010120220808044558,알파카페,,I2,음식,I212,비알코올 ,I21201,카페,I56221,커피 전문점,11,서울특별시,11200,성동구,11200660,성수1가2동,1120011400,성수동1가,1.12001E+18,1,대지,656,882,서울특별시 성동구 성수동1가 656-882,1.12003E+11,서울특별시 성동구 광나루로,144,,1.12001E+24,더스페이스타워,서울특별시 성동구 광나루로 144,133924,4788,,1,,127.0464204,37.55129251
MA010120220808036033,리프디어,,I2,음식,I212,비알코올 ,I21201,카페,I56221,커피 전문점,11,서울특별시,11215,광진구,11215840,자양3동,1121510500,자양동,1.12151E+18,1,대지,589,2,서울특별시 광진구 자양동 589-2,1.12154E+11,서울특별시 광진구 자양번영로1길,15,,1.12151E+24,,서울특별시 광진구 자양번영로1길 15,143864,5095,,1,,127.0739506,37.53064328
MA010120220808040614,더보이즈커피,,I2,음식,I212,비알코올 ,I21201,카페,I56221,커피 전문점,11,서울특별시,11215,광진구,11215730,군자동,1121510900,군자동,1.12151E+18,1,대지,1,10,서울특별시 광진구 군자동 1-10,1.12153E+11,서울특별시 광진구 능동로,275,1,1.12151E+24,동원빌딩,서울특별시 광진구 능동로 275-1,143837,4997,,2,,127.0777616,37.55468613
MA010120220808044970,메가엠지씨커피신양초,,I2,음식,I212,비알코올 ,I21201,카페,I56221,커피 전문점,11,서울특별시,11215,광진구,11215847,자양4동,1121510500,자양동,1.12151E+18,1,대지,550,1,서울특별시 광진구 자양동 550-1,1.12153E+11,서울특별시 광진구 능동로,49,,1.12151E+24,영지빌딩,서울특별시 광진구 능동로 49,143877,5074,,1,,127.0683764,37.53580752
MA010120220808037206,젤라또팩토리,,I2,음식,I212,비알코올 ,I21201,카페,I56221,커피 전문점,11,서울특별시,11200,성동구,11200670,성수2가1동,1120011500,성수동2가,1.12001E+18,1,대지,339,137,서울특별시 성동구 성수동2가 339-137,1.12004E+11,서울특별시 성동구 성수이로7길,1,,1.12001E+24,,서울특별시 성동구 성수이로7길 1,133828,4781,,1,,127.0549102,37.53949394
MA010120220808041684,디에즈마를리,,I2,음식,I212,비알코올 ,I21201,카페,I56229,기타 비알코올 음료점업,11,서울특별시,11200,성동구,11200690,성수2가3동,1120011500,성수동2가,1.12001E+18,1,대지,315,55,서울특별시 성동구 성수동2가 315-55,1.12004E+11,서울특별시 성동구 연무장길,47,,1.12001E+24,조은빌딩,서울특별시 성동구 연무장길 47,133835,4782,,1,,127.0547215,37.54279028
MA010120220808045890,소소쿠키빌,,I2,음식,I212,비알코올 ,I21201,카페,I56221,커피 전문점,11,서울특별시,11215,광진구,11215810,광장동,1121510400,광장동,1.12151E+18,1,대지,245,11,서울특별시 광진구 광장동 245-11,1.12154E+11,서울특별시 광진구 천호대로143길,8,11,1.12151E+24,,서울특별시 광진구 천호대로143길 8-11,143805,4968,,,,127.1035238,37.54595512
MA010120220807997594,길버트,,I2,음식,I212,비알코올 ,I21201,카페,I56221,커피 전문점,11,서울특별시,11230,동대문구,11230660,장안2동,1123010600,장안동,1.12301E+18,1,대지,92,32,서울특별시 동대문구 장안동 92-32,1.12304E+11,서울특별시 동대문구 사가정로23가길,43,,1.12301E+24,단하당,서울특별시 동대문구 사가정로23가길 43,130835,2514,,1,,127.0722375,37.58032272
MA010120220807999171,카페드라이,,I2,음식,I212,비알코올 ,I21201,카페,I56221,커피 전문점,11,서울특별시,11215,광진구,11215847,자양4동,1121510500,자양동,1.12151E+18,1,대지,8,27,서울특별시 광진구 자양동 8-27,1.12153E+11,서울특별시 광진구 아차산로,216,12,1.12151E+24,,서울특별시 광진구 아차산로 216-12,143841,5072,,1,,127.067082,37.54070803
MA010120220808007383,바른커피,,I2,음식,I212,비알코올 ,I21201,카페,I56221,커피 전문점,11,서울특별시,11230,동대문구,11230650,장안1동,1123010600,장안동,1.12301E+18,1,대지,417,6,서울특별시 동대문구 장안동 417-6,1.12304E+11,서울특별시 동대문구 천호대로81길,8,,1.12301E+24,영풍빌딩,서울특별시 동대문구 천호대로81길 8,130844,2636,,1,,127.0639555,37.56269593
MA010120220808000120,롤스커피,,I2,음식,I212,비알코올 ,I21201,카페,I56221,커피 전문점,11,서울특별시,11230,동대문구,11230536,용신동,1123010200,용두동,1.12301E+18,1,대지,255,58,서울특별시 동대문구 용두동 255-58,1.12303E+11,서울특별시 동대문구 청계천로,483,,1.12301E+24,창보리버리치,서울특별시 동대문구 청계천로 483,130823,2589,,1,,127.0306926,37.57025761
MA010120220808008326,카페237,,I2,음식,I212,비알코올 ,I21201,카페,I56221,커피 전문점,11,서울특별시,11230,동대문구,11230650,장안1동,1123010600,장안동,1.12301E+18,1,대지,237,8,서울특별시 동대문구 장안동 237-8,1.12303E+11,서울특별시 동대문구 한천로,26,1,1.12301E+24,,서울특별시 동대문구 한천로 26-1,130837,2632,,1,,127.0602417,37.56458566
MA010120220808008733,커피코코,,I2,음식,I212,비알코올 ,I21201,카페,I56229,기타 비알코올 음료점업,11,서울특별시,11200,성동구,11200690,성수2가3동,1120011500,성수동2가,1.12001E+18,1,대지,278,35,서울특별시 성동구 성수동2가 278-35,1.12004E+11,서울특별시 성동구 아차산로13길,31,,1.12001E+24,,서울특별시 성동구 아차산로13길 31,133832,4796,,1,,127.0614843,37.54583571
MA010120220808149563,청량리롯데엔제리너스식당가점,,I2,음식,I212,비알코올 ,I21201,카페,I56221,커피 전문점,11,서울특별시,11230,동대문구,11230560,전농1동,1123010400,전농동,1.12301E+18,1,대지,588,1,서울특별시 동대문구 전농동 588-1,1.12303E+11,서울특별시 동대문구 왕산로,214,,1.12301E+24,"청량리역,롯데백화점",서울특별시 동대문구 왕산로 214,130851,2555,,7,,127.0511299,37.58419161
MA010120220808149489,카페토스피아,,I2,음식,I212,비알코올 ,I21201,카페,I56192,"피자, 햄버거, 샌드위치 및 유사 음식점업",11,서울특별시,11230,동대문구,11230705,청량리동,1123010700,청량리동,1.12301E+18,1,대지,709,,서울특별시 동대문구 청량리동 709,1.12303E+11,서울특별시 동대문구 홍릉로,19,2,1.12301E+24,,서울특별시 동대문구 홍릉로 19-2,130870,2573,,,,127.04434,37.58214553
MA010120220808159134,한신,,I2,음식,I212,비알코올 ,I21201,카페,I56229,기타 비알코올 음료점업,11,서울특별시,11230,동대문구,11230536,용신동,1123010100,신설동,1.12301E+18,1,대지,81,97,서울특별시 동대문구 신설동 81-97,1.12304E+11,서울특별시 동대문구 한빛로1길,5,,1.12301E+24,,서울특별시 동대문구 한빛로1길 5,130810,2581,,1,,127.0238872,37.57648181
MA010120220808151316,빽다방행당무학점,,I2,음식,I212,비알코올 ,I21201,카페,I56221,커피 전문점,11,서울특별시,11200,성동구,11200560,행당1동,1120010700,행당동,1.12001E+18,1,대지,317,63,서울특별시 성동구 행당동 317-63,1.12003E+11,서울특별시 성동구 행당로,121,,1.12001E+24,,서울특별시 성동구 행당로 121,133071,4714,,1,,127.0323638,37.55833246
MA010120220808154628,치카치카,,I2,음식,I212,비알코올 ,I21201,카페,I56221,커피 전문점,11,서울특별시,11200,성동구,11200670,성수2가1동,1120011500,성수동2가,1.12001E+18,1,대지,512,,서울특별시 성동구 성수동2가 512,1.12004E+11,서울특별시 성동구 성수이로3길,16,,1.12001E+24,,서울특별시 성동구 성수이로3길 16,133828,4775,,1,,127.0528696,37.53711684
MA010120220808160160,카리스,,I2,음식,I212,비알코올 ,I21201,카페,I56221,커피 전문점,11,서울특별시,11230,동대문구,11230705,청량리동,1123010700,청량리동,1.12301E+18,1,대지,37,,서울특별시 동대문구 청량리동 37,1.12303E+11,서울특별시 동대문구 제기로,148,,1.12301E+24,,서울특별시 동대문구 제기로 148,130866,2488,,2,,127.049352,37.58599742
MA010120220808258677,따우전드,,I2,음식,I212,비알코올 ,I21201,카페,I56221,커피 전문점,11,서울특별시,11215,광진구,11215740,중곡1동,1121510100,중곡동,1.12151E+18,1,대지,628,7,서울특별시 광진구 중곡동 628-7,1.12154E+11,서울특별시 광진구 면목로7길,8,,1.12151E+24,,서울특별시 광진구 면목로7길 8,143912,4917,,1,,127.0772604,37.55953887
MA010120220808248024,무리엘로서울부오이카페,,I2,음식,I212,비알코올 ,I21201,카페,I56221,커피 전문점,11,서울특별시,11215,광진구,11215847,자양4동,1121510500,자양동,1.12151E+18,1,대지,203,11,서울특별시 광진구 자양동 203-11,1.12154E+11,서울특별시 광진구 뚝섬로22길,39,,1.12151E+24,,서울특별시 광진구 뚝섬로22길 39,143846,5083,,1,,127.061153,37.53525473
MA010120220808204089,희커피호프,,I2,음식,I212,비알코올 ,I21201,카페,I56229,기타 비알코올 음료점업,11,서울특별시,11260,중랑구,11260590,상봉2동,1126010200,상봉동,1.12601E+18,1,대지,89,9,서울특별시 중랑구 상봉동 89-9,1.12604E+11,서울특별시 중랑구 망우로50길,31,,1.12601E+24,,서울특별시 중랑구 망우로50길 31,131859,2149,,2,,127.0894276,37.5958194
MA010120220808203572,에이치스테이,,I2,음식,I212,비알코올 ,I21201,카페,I56221,커피 전문점,11,서울특별시,11200,성동구,11200520,왕십리2동,1120010200,하왕십리동,1.12001E+18,1,대지,890,101,서울특별시 성동구 하왕십리동 890-101,1.12004E+11,서울특별시 성동구 왕십리로31나길,43,,1.12001E+24,,서울특별시 성동구 왕십리로31나길 43,133857,4710,,,,127.0288397,37.563881
MA010120220808233426,왓유워너,,I2,음식,I212,비알코올 ,I21201,카페,I56221,커피 전문점,11,서울특별시,11215,광진구,11215710,화양동,1121510700,화양동,1.12151E+18,1,대지,132,6,서울특별시 광진구 화양동 132-6,1.12154E+11,서울특별시 광진구 능동로19길,57,,1.12151E+24,,서울특별시 광진구 능동로19길 57,143915,5009,,1,,127.0704845,37.54737561
MA010120220808231412,백야드빌더,,I2,음식,I212,비알코올 ,I21201,카페,I56221,커피 전문점,11,서울특별시,11200,성동구,11200660,성수1가2동,1120011400,성수동1가,1.12001E+18,1,대지,656,609,서울특별시 성동구 성수동1가 656-609,1.12003E+11,서울특별시 성동구 광나루로,152,,1.12001E+24,,서울특별시 성동구 광나루로 152,133823,4788,,1,,127.04703,37.55141457
MA010120220808216341,카페디-데이,,I2,음식,I212,비알코올 ,I21201,카페,I56221,커피 전문점,11,서울특별시,11215,광진구,11215770,중곡4동,1121510100,중곡동,1.12151E+18,1,대지,83,6,서울특별시 광진구 중곡동 83-6,1.12153E+11,서울특별시 광진구 영화사로,23,,1.12151E+24,,서울특별시 광진구 영화사로 23,143888,4945,,1,,127.089929,37.55742062
MA010120220808213818,빽다방건대동문회관점,,I2,음식,I212,비알코올 ,I21201,카페,I56221,커피 전문점,11,서울특별시,11215,광진구,11215840,자양3동,1121510500,자양동,1.12151E+18,1,대지,227,336,서울특별시 광진구 자양동 227-336,1.12154E+11,서울특별시 광진구 아차산로36길,5,,1.12151E+24,건국대학교동문회관,서울특별시 광진구 아차산로36길 5,143854,5066,,1,,127.074625,37.53833454
MA010120220808191673,휘경아뜰리에,,I2,음식,I212,비알코올 ,I21201,카페,I56221,커피 전문점,11,서울특별시,11230,동대문구,11230720,휘경1동,1123010900,휘경동,1.12301E+18,1,대지,268,1,서울특별시 동대문구 휘경동 268-1,1.12303E+11,서울특별시 동대문구 망우로,55,,1.12301E+24,,서울특별시 동대문구 망우로 55,130091,2439,,,,127.0594552,37.58932211
MA010120220808183821,오늘도앙,,I2,음식,I212,비알코올 ,I21201,카페,I56221,커피 전문점,11,서울특별시,11200,성동구,11200790,용답동,1120012200,용답동,1.12001E+18,1,대지,37,16,서울특별시 성동구 용답동 37-16,1.12004E+11,서울특별시 성동구 용답길,99,,1.12001E+24,미소드림,서울특별시 성동구 용답길 99,133848,4805,,,,127.0522235,37.56133186
